data = '[{"artist": "Bob  Coffee","image": "img/HeWasSad.jpg","title": "And He Was Sad","material": "Bronze, On Stone Base (dims Are Sculpture Only)","medium": "Sculpture","date": "1/1/07 0:00","location": "Eastwoods Park","address": "3001 Harris Park Ave","zip": "78705","lat": 30.29051,"lon": -97.731772,"FIELD12": null,"FIELD13": "","FIELD14": ""},{"artist": "Will  Larson","image": "img/NA.jpg","title": "¡ Mira !","material": "Copper, Aluminum, Neon","medium": "Mixed Media","date": "1/1/00 0:00","location": "Lorraine Grandma Camacho Activity Center","address": "34 Robert Martinez Jr St","zip": "78702","lat": 30.185228,"lon": -97.732321,"FIELD12": null,"FIELD13": "","FIELD14": ""},{"artist": "Sandra  Fiedorek,  David  Heymann","image": "img/56.jpg","title": "56- (Fifty-six Inches)","material": "Mixed Media","medium": "Mixed Media","date": "1/1/96 0:00","location": "Howson Branch Library","address": "2500 Exposition Blvd","zip": "78703","lat": 30.298241,"lon": -97.767602,"FIELD12": null,"FIELD13": "","FIELD14": ""},{"artist": "Holli  Brown,  Pascal  Simon","image": "img/HolliBrown_Park.jpg","title": "A Day in the Park","material": "Handmade Ceramic Tiles, Glass Tiles","medium": "Mosaic","date": "1/1/13 0:00","location": "Shipe Neighborhood Park","address": "4400 Ave G","zip": "78751","lat": 30.307424,"lon": -97.727335,"FIELD12": null,"FIELD13": "","FIELD14": ""},{"artist": "Freddie  McCoo","image": "img/NA.jpg","title": "A River Runs Thru Us","material": "Acrylic On Panel","medium": "Painting","date": "1/1/04 0:00","location": "George Washington Carver Branch Library","address": "1161 Angelina St","zip": "78702","lat": 30.26954,"lon": -97.724074,"FIELD12": null,"FIELD13": "","FIELD14": ""},{"artist": "Sten Lex","image": "img/Accordion16.jpg","title": "Accordion 16","material": "Exterior Latex On Concrete","medium": "Mixed Media","date": "1/1/16 0:00","location": "Seaholm Retaining Wall","address": "211 Walter Seaholm Dr","zip": "78701","lat": 30.266835,"lon": -97.753227,"FIELD12": null,"FIELD13": "","FIELD14": ""},{"artist": "Pat  Oliphant","image": "img/AngelinaEberly.jpg","title": "Angelina Eberly","material": "Bronze, Granite","medium": "Sculpture","date": "1/1/04 0:00","location": "Congress Avenue Streetscape","address": "612 Congress Ave","zip": "78701","lat": 30.268631,"lon": -97.742723,"FIELD12": null,"FIELD13": "","FIELD14": ""},{"artist": "LaMa Ventures: Philip Lamb, Susan Magilow  ","image": "img/NA.jpg","title": "Aquifer","material": "Glass, Limestone, Aluminum","medium": "Mixed Media","date": "1/1/14 0:00","location": "Second Street District","address": "W Second St","zip": "78701","lat": 30.263735,"lon": -97.741876,"FIELD12": null,"FIELD13": "","FIELD14": ""},{"artist": "Colin  McIntyre","image": "img/NA.jpg","title": "Arboreal Passage","material": "Steel, Bronze, Copper, Limestone, Wood","medium": "Mixed Media","date": "1/1/11 0:00","location": "Austin Nature and Science Center","address": "301 Nature Center Dr","zip": "78746","lat": 30.272191,"lon": -97.773401,"FIELD12": null,"FIELD13": "","FIELD14": ""},{"artist": "Emily  Little,  Shea  Little, Jana Swec, Steve Wiman","image": "img/NA.jpg","title": "ARFF! Tré Arenz Memorial","material": "Ceramic Tiles, Rocks, Cement, Paint","medium": "Mixed Media","date": "1/1/06 0:00","location": "Butler Hike and Bike Trail at Lady Bird Lake","address": "621 W Cesar Chavez","zip": "78701","lat": 30.264662,"lon": -97.750122,"FIELD12": null,"FIELD13": "","FIELD14": ""},{"artist": "Judd Graham","image": "img/Array1.jpg","title": "Array #1","material": "Mild Steel","medium": "Sculpture","date": "1/1/17 0:00","location": "Second Street Bridge and Extension","address": "W 2nd Street Extension","zip": "78701","lat": 30.266444,"lon": -97.751882,"FIELD12": null,"FIELD13": "","FIELD14": ""},{"artist": "Judd Graham","image": "img/Array2.jpg","title": "Array #2","material": "Mild Steel","medium": "Sculpture","date": "1/1/17 0:00","location": "Second Street Bridge and Extension","address": "W 2nd Street Extension","zip": "78701","lat": 30.266432,"lon": -97.751859,"FIELD12": null,"FIELD13": "","FIELD14": ""},{"artist": "Judd Graham","image": "img/Array3.jpg","title": "Array #3","material": "Mild Steel","medium": "Sculpture","date": "1/1/17 0:00","location": "Second Street Bridge and Extension","address": "W 2nd Street Extension","zip": "78701","lat": 30.266426,"lon": -97.751833,"FIELD12": null,"FIELD13": "","FIELD14": ""},{"artist": "Judd Graham","image": "img/Array4.jpg","title": "Array #4","material": "Mild Steel","medium": "Sculpture","date": "1/1/17 0:00","location": "Second Street Bridge and Extension","address": "W 2nd Street Extension","zip": "78701","lat": 30.266293,"lon": -97.751694,"FIELD12": null,"FIELD13": "","FIELD14": ""},{"artist": "Judd Graham","image": "img/Array5.jpg","title": "Array #5","material": "Mild Steel","medium": "Sculpture","date": "1/1/17 0:00","location": "Second Street Bridge and Extension","address": "W 2nd Street Extension","zip": "78701","lat": 30.266288,"lon": -97.751668,"FIELD12": null,"FIELD13": "","FIELD14": ""},{"artist": "Judd Graham","image": "img/Array6.jpg","title": "Array #6","material": "Mild Steel","medium": "Sculpture","date": "1/1/17 0:00","location": "Second Street Bridge and Extension","address": "W 2nd Street Extension","zip": "78701","lat": 30.266384,"lon": -97.751343,"FIELD12": null,"FIELD13": "","FIELD14": ""},{"artist": "Judd Graham","image": "img/Array7.jpg","title": "Array #7","material": "Mild Steel","medium": "Sculpture","date": "1/1/17 0:00","location": "Second Street Bridge and Extension","address": "W 2nd Street Extension","zip": "78701","lat": 30.266364,"lon": -97.751308,"FIELD12": null,"FIELD13": "","FIELD14": ""},{"artist": "Judd Graham","image": "img/Array8.jpg","title": "Array #8","material": "Mild Steel","medium": "Sculpture","date": "1/1/17 0:00","location": "Second Street Bridge and Extension","address": "W 2nd Street Extension","zip": "78701","lat": 30.266444,"lon": -97.751182,"FIELD12": null,"FIELD13": "","FIELD14": ""},{"artist": "Judd Graham","image": "img/Array9.jpg","title": "Array #9","material": "Mild Steel","medium": "Sculpture","date": "1/1/17 0:00","location": "Second Street Bridge and Extension","address": "W 2nd Street Extension","zip": "78701","lat": 30.266346,"lon": -97.751239,"FIELD12": null,"FIELD13": "","FIELD14": ""},{"artist": "Elizabeth  Busch","image": "img/NA.jpg","title": "Aurora","material": "Fiber Wall Hanging","medium": "Sculpture","date": "1/1/88 0:00","location": "Conley-Guerrero Senior Activity Center","address": "808 Nile St","zip": "78702","lat": 30.265621,"lon": -97.711117,"FIELD12": null,"FIELD13": "","FIELD14": ""},{"artist": "Young-Min Kang","image": "img/NA.jpg","title": "Austin  Downtown Cruiser (Day)","material": "Laminated Digital Prints Adhered To Shaped Aluminum Composite Panels Attached To Wooden Framework","medium": "Print","date": "1/1/09 0:00","location": "Austin Bergstrom International Airport","address": "3600 Presidential Blvd","zip": "78719","lat": 30.2021,"lon": -97.66808,"FIELD12": null,"FIELD13": "","FIELD14": ""},{"artist": "Young-Min Kang","image": "img/NA.jpg","title": "Austin Downtown Cruiser (Night)","material": "Digital Prints On Shaped Aluminum Composite, Steel, Wood","medium": "Print","date": "1/1/09 0:00","location": "Austin Bergstrom International Airport","address": "3600 Presidential Blvd","zip": "78719","lat": 30.20207,"lon": -97.66554,"FIELD12": null,"FIELD13": "","FIELD14": ""},{"artist": "Debra  Prather Samples","image": "img/NA.jpg","title": "Austin Music Flows","material": "Mixed Media Collage And Paint On Fiberglass","medium": "Mixed Media","date": "1/1/06 0:00","location": "Austin Bergstrom International Airport","address": "3600 Presidential Blvd","zip": "78719","lat": 30.20208,"lon": -97.66698,"FIELD12": null,"FIELD13": "","FIELD14": ""},{"artist": "Twyla  Arthur","image": "img/NA.jpg","title": "Autumn Ponds","material": "Stone Tiles","medium": "Mosaic","date": "1/1/02 0:00","location": "Palmer Events Center","address": "900 Barton Springs Rd","zip": "78704","lat": 30.260197,"lon": -97.753346,"FIELD12": null,"FIELD13": "","FIELD14": ""},{"artist": "Nan  Standish Blake","image": "img/NA.jpg","title": "Backyard Boat","material": "Print On Fujicolor Crystal Archive Paper","medium": "Print","date": "1/1/03 0:00","location": "Health and Human Services Betty Dunkerley Campus","address": "7201 Levander Loop","zip": "78702","lat": 30.253828,"lon": -97.689018,"FIELD12": null,"FIELD13": "","FIELD14": ""},{"artist": "Matthew  Fuller","image": "img/NA.jpg","title": "Beach Dogs","material": "Selenium-toned Silver Gelatin Print","medium": "Print","date": "1/1/96 0:00","location": "Health and Human Services Betty Dunkerley Campus","address": "7201 Levander Loop","zip": "78702","lat": 30.253828,"lon": -97.689018,"FIELD12": null,"FIELD13": "","FIELD14": ""},{"artist": "Ken  Little","image": "img/BeltingItOut.jpg","title": "Belting It Out","material": "Bronze","medium": "Sculpture","date": "1/1/14 0:00","location": "Town Lake Boardwalk Trail","address": "Town Lake Boardwalk Trail","zip": "78702","lat": 30.248412,"lon": -97.732405,"FIELD12": null,"FIELD13": "","FIELD14": ""},{"artist": "David  Santos","image": "img/BigArch.jpg","title": "Big Arch","material": "Carved Limestone And Forged Iron Sculpture","medium": "Sculpture","date": "1/1/92 0:00","location": "Holly Street Power Plant","address": "2400 Holly St","zip": "78702","lat": 30.249858,"lon": -97.721747,"FIELD12": null,"FIELD13": "","FIELD14": ""},{"artist": "Ann  Adams","image": "img/NA.jpg","title": "Big Chiller Blues","material": "Glass Tiles","medium": "Mosaic","date": "1/1/05 0:00","location": "Austin Convention Center Parking Garage","address": "601 E Fifth St","zip": "78701","lat": 30.265147,"lon": -97.736676,"FIELD12": null,"FIELD13": "","FIELD14": ""},{"artist": "Elena  Eidelberg,  Kathleen  Ash","image": "img/NA.jpg","title": "Big Snake","material": "Handmade Shaped Ceramic & Sandblasted Glass","medium": "Mixed Media","date": "1/1/97 0:00","location": "Austin Nature and Science Center","address": "301 Nature Center Dr","zip": "78746","lat": 30.271908,"lon": -97.774026,"FIELD12": null,"FIELD13": "","FIELD14": ""},{"artist": "Caprice  Pierucci","image": "img/NA.jpg","title": "Birch Cascade","material": "Birch, Pine","medium": "Sculpture","date": "1/1/09 0:00","location": "City Hall and Public Plaza","address": "301 W Second St","zip": "78701","lat": 30.2649,"lon": -97.74681,"FIELD12": null,"FIELD13": "","FIELD14": ""},{"artist": "Stephanie  Strange","image": "img/BlackWell.jpg","title": "Black Well","material": "Mild Steel, Typewriter Keys","medium": "Sculpture","date": "1/1/10 0:00","location": "Twin Oaks Branch Library","address": "1800 S Fifth Street","zip": "78704","lat": 30.248697,"lon": -97.762381,"FIELD12": null,"FIELD13": "","FIELD14": ""},{"artist": "Kincannon Studios","image": "img/Blackbird.jpg","title": "Blackbird","material": "Texas Limestone, Black Mineral Finish, Bronze","medium": "Mixed Media","date": "1/1/17 0:00","location": "Republic Square Park","address": "422 Guadalupe St","zip": "78701","lat": 30.268006,"lon": -97.747203,"FIELD12": null,"FIELD13": "","FIELD14": ""},{"artist": "Jerry  Defrese","image": "img/blackland.jpg","title": "Blackland","material": "Galvanized Steel","medium": "Sculpture","date": "1/1/83 0:00","location": "George Washington Carver Museum and Cultural Center","address": "1165 Angelina St","zip": "78702","lat": 30.269968,"lon": -97.723711,"FIELD12": null,"FIELD13": "","FIELD14": ""},{"artist": "Vy Ngo","image": "img/NA.jpg","title": "Blue","material": "Oil, Acrylic On Canvas","medium": "Painting","date": "1/1/17 0:00","location": "City Hall and Public Plaza","address": "301 W Second St","zip": "78701","lat": 30.2649,"lon": -97.74681,"FIELD12": null,"FIELD13": "","FIELD14": ""},{"artist": "Casey D. Cooper","image": "img/BlueGate.jpg","title": "Blue Gate","material": "Painted Stainless Steel","medium": "Painting","date": "1/1/14 0:00","location": "Bartholomew Municipal Pool","address": "1800 E 51st St","zip": "78723","lat": 30.302685,"lon": -97.697185,"FIELD12": null,"FIELD13": "","FIELD14": ""},{"artist": "Virginia  Fleck","image": "img/NA.jpg","title": "Bounce","material": "Archival Digital Prints, Plexiglas","medium": "Print","date": "1/1/13 0:00","location": "Cultural Arts Division Offices","address": "201 E 2nd St","zip": "78701","lat": 30.26395,"lon": -97.74311,"FIELD12": null,"FIELD13": "","FIELD14": ""},{"artist": "Sodalitas Art Group","image": "img/BrazosSound1.jpg","title": "Brazos Sound Project #1","material": "Powder Coated Steel With Electronic Audio Components","medium": "Mixed Media","date": "1/1/16 0:00","location": "Brazos Street Streetscape","address": "Brazos Street and Cesar Chavez, west side","zip": "78701","lat": 30.26325,"lon": -97.74318,"FIELD12": null,"FIELD13": "","FIELD14": ""},{"artist": "Sodalitas Art Group","image": "img/BrazosSound10.jpg","title": "Brazos Sound Project #10","material": "Powder Coated Steel With Electronic Audio Components","medium": "Mixed Media","date": "1/1/16 0:00","location": "Brazos Street Streetscape","address": "Brazos south of 4th Street, east side","zip": "78701","lat": 30.26547,"lon": -97.74221,"FIELD12": null,"FIELD13": "","FIELD14": ""},{"artist": "Sodalitas Art Group","image": "img/BrazosSound11.jpg","title": "Brazos Sound Project #11","material": "Powder Coated Steel With Electronic Audio Components","medium": "Mixed Media","date": "1/1/16 0:00","location": "Brazos Street Streetscape","address": "Brazos between 3rd and 4th Street, east side","zip": "78701","lat": 30.2653,"lon": -97.74263,"FIELD12": null,"FIELD13": "","FIELD14": ""},{"artist": "Sodalitas Art Group","image": "img/BrazosSound12.jpg","title": "Brazos Sound Project #12","material": "Powder Coated Steel With Electronic Audio Components","medium": "Mixed Media","date": "1/1/16 0:00","location": "Brazos Street Streetscape","address": "Brazos north of 2nd Street, east side","zip": "78701","lat": 30.26474,"lon": -97.74285,"FIELD12": null,"FIELD13": "","FIELD14": ""},{"artist": "Sodalitas Art Group","image": "img/BrazosSound13.jpg","title": "Brazos Sound Project #13","material": "Powder Coated Steel With Electronic Audio Components","medium": "Mixed Media","date": "1/1/16 0:00","location": "Brazos Street Streetscape","address": "Brazos south of 2nd Street, east side","zip": "78701","lat": 30.2643,"lon": -97.74298,"FIELD12": null,"FIELD13": "","FIELD14": ""},{"artist": "Sodalitas Art Group","image": "img/BrazosSound2.jpg","title": "Brazos Sound Project #2","material": "Powder Coated Steel With Electronic Audio Components","medium": "Mixed Media","date": "1/1/16 0:00","location": "Brazos Street Streetscape","address": "Brazos south of 2nd Street, west side","zip": "78701","lat": 30.26424,"lon": -97.74303,"FIELD12": null,"FIELD13": "","FIELD14": ""},{"artist": "Sodalitas Art Group","image": "img/BrazosSound3.jpg","title": "Brazos Sound Project #3","material": "Powder Coated Steel With Electronic Audio Components","medium": "Mixed Media","date": "1/1/16 0:00","location": "Brazos Street Streetscape","address": "Brazos and 3rd Street, west side","zip": "78701","lat": 30.264566,"lon": -97.742764,"FIELD12": null,"FIELD13": "","FIELD14": ""},{"artist": "Sodalitas Art Group","image": "img/BrazosSound4.jpg","title": "Brazos Sound Project #4","material": "Powder Coated Steel With Electronic Audio Components","medium": "Mixed Media","date": "1/1/16 0:00","location": "Brazos Street Streetscape","address": "Brazos south of 4th Street, west side","zip": "78701","lat": 30.264063,"lon": -97.742608,"FIELD12": null,"FIELD13": "","FIELD14": ""},{"artist": "Sodalitas Art Group","image": "img/BrazosSound5.jpg","title": "Brazos Sound Project #5","material": "Powder Coated Steel With Electronic Audio Components","medium": "Mixed Media","date": "1/1/16 0:00","location": "Brazos Street Streetscape","address": "Brazos south of 5th Street (at the Onion), west side","zip": "78701","lat": 30.266468,"lon": -97.74144,"FIELD12": null,"FIELD13": "","FIELD14": ""},{"artist": "Sodalitas Art Group","image": "img/BrazosSound6.jpg","title": "Brazos Sound Project #6","material": "Powder Coated Steel With Electronic Audio Components","medium": "Mixed Media","date": "1/1/16 0:00","location": "Brazos Street Streetscape","address": "Brazos south of 7th Street, west side","zip": "78701","lat": 30.267078,"lon": -97.741726,"FIELD12": null,"FIELD13": "","FIELD14": ""},{"artist": "Sodalitas Art Group","image": "img/BrazosSound7.jpg","title": "Brazos Sound Project #7","material": "Powder Coated Steel With Electronic Audio Components","medium": "Mixed Media","date": "1/1/16 0:00","location": "Brazos Street Streetscape","address": "Brazos centered between 6th and 7th Streets, east side","zip": "78701","lat": 30.26827,"lon": -97.74119,"FIELD12": null,"FIELD13": "","FIELD14": ""},{"artist": "Sodalitas Art Group","image": "img/BrazosSound8.jpg","title": "Brazos Sound Project #8","material": "Powder Coated Steel With Electronic Audio Components","medium": "Mixed Media","date": "1/1/16 0:00","location": "Brazos Street Streetscape","address": "Brazos near 5th Street, east side","zip": "78701","lat": 30.264526,"lon": -97.742638,"FIELD12": null,"FIELD13": "","FIELD14": ""},{"artist": "Sodalitas Art Group","image": "img/BrazosSound9.jpg","title": "Brazos Sound Project #9","material": "Powder Coated Steel With Electronic Audio Components","medium": "Mixed Media","date": "1/1/16 0:00","location": "Brazos Street Streetscape","address": "Brazos centered between 4th and 5th Streets, east side","zip": "78701","lat": 30.26624,"lon": -97.742041,"FIELD12": null,"FIELD13": "","FIELD14": ""},{"artist": "Roy  Mata","image": "img/NA.jpg","title": "Buba at Barton Springs","material": "Photographic C-print","medium": "Print","date": "1/1/03 0:00","location": "City Hall and Public Plaza","address": "301 W Second St","zip": "78701","lat": 30.2649,"lon": -97.74681,"FIELD12": null,"FIELD13": "","FIELD14": ""},{"artist": "Ryan Montgomery","image": "img/NA.jpg","title": "Buttermilk Pie","material": "Oil On Canvas","medium": "Painting","date": "1/1/16 0:00","location": "City Hall and Public Plaza","address": "301 W Second St","zip": "78701","lat": 30.26475,"lon": -97.74729,"FIELD12": null,"FIELD13": "","FIELD14": ""},{"artist": "Susan  Wallace","image": "img/cardinalpoints.jpg","title": "Cardinal Points: North-South-East-West","material": "Powder Coated Aluminum And Stainless Steel","medium": "Sculpture","date": "1/1/11 0:00","location": "E. Seventh Street Obelisco at Webberville Rd","address": "E 7th and Webberville Rd","zip": "78702","lat": 30.261434,"lon": -97.717204,"FIELD12": null,"FIELD13": "","FIELD14": ""},{"artist": "Claudia Goldman","image": "img/NA.jpg","title": "Cattails and Coneflower","material": "Weathered Steel","medium": "Sculpture","date": "1/1/05 0:00","location": "Zilker Botanical Gardens","address": "2220 Barton Springs Rd","zip": "78746","lat": 30.26899,"lon": -97.77281,"FIELD12": null,"FIELD13": "","FIELD14": ""},{"artist": "Christian  Moeller","image": "img/CAW.jpg","title": "CAW","material": "Aluminum Honeycomb Composite Construction, Finished With A Sprayed Catalyzed Urethane Paint System","medium": "Mixed Media","date": "1/1/16 0:00","location": "Central Library","address": "710 W Cesar Chavez St.","zip": "78701","lat": 30.26584,"lon": -97.750235,"FIELD12": null,"FIELD13": "","FIELD14": ""},{"artist": "Twyla  Arthur","image": "img/CelebratingTraditions.jpg","title": "Celebrating Traditions","material": "Ceramic Tile, Metal, Rocks","medium": "Mixed Media","date": "1/1/02 0:00","location": "Springdale Park","address": "1175 Nickols Ave","zip": "78721","lat": 30.277456,"lon": -97.684222,"FIELD12": null,"FIELD13": "","FIELD14": ""},{"artist": "Jill  Bedgood,  Steve  Wiman","image": "img/CommunityQuilt.jpg","title": "Community Quilt","material": "Broken China And Tile Mosaics","medium": "Mosaic","date": "1/1/95 0:00","location": "South Austin Senior Activity Center","address": "3911 Manchaca Rd","zip": "78704","lat": 30.233339,"lon": -97.784596,"FIELD12": null,"FIELD13": "","FIELD14": ""},{"artist": "Jill  Bedgood","image": "img/Charms.jpg","title": "Community Screen: Charms","material": "Aluminum, Stainless Steel, Paint","medium": "Mixed Media","date": "1/1/12 0:00","location": "Northwest Recreation Center","address": "2913 Northland Dr","zip": "78756","lat": 30.333817,"lon": -97.751796,"FIELD12": null,"FIELD13": "","FIELD14": ""},{"artist": "Ben  Livingston","image": "img/NA.jpg","title": "Confabulating Orbits","material": "Neon And Copper","medium": "Mixed Media","date": "1/1/96 0:00","location": "Austin Convention Center","address": "500 E Cesar Chavez St","zip": "78701","lat": 30.262721,"lon": -97.740769,"FIELD12": null,"FIELD13": "","FIELD14": ""},{"artist": "Nan  Standish Blake","image": "img/NA.jpg","title": "Connected","material": "Print On Fujicolor Crystal Archive Paper","medium": "Print","date": "1/1/03 0:00","location": "Health and Human Services Betty Dunkerley Campus","address": "7201 Levander Loop","zip": "78702","lat": 30.253828,"lon": -97.689018,"FIELD12": null,"FIELD13": "","FIELD14": ""},{"artist": "Sadi  Brewton,  Jonathan  Davies","image": "img/NA.jpg","title": "Cow River","material": "Solar Lights (19) Inscribed With Town Names, Saw Cut Lines In Existing Concrete","medium": "Mixed Media","date": "1/1/14 0:00","location": "Second Street District","address": "310 W 2nd St","zip": "78701","lat": 30.265093,"lon": -97.746704,"FIELD12": null,"FIELD13": "","FIELD14": ""},{"artist": "Werllayne Nunes","image": "img/creativityculture.jpg","title": "Creativity and Culture: A Celebration / Creatividad y Cultura: Una Celebración","material": "Mineral Paint On Cement Board, Mounted To Steel Frame","medium": "Painting","date": "1/1/14 0:00","location": "E. Seventh Street Obelisco at Northwestern","address": "E 7th St at Northwestern","zip": "78702","lat": 30.261069,"lon": -97.714808,"FIELD12": null,"FIELD13": "","FIELD14": ""},{"artist": "Mery Godigna Collet,  Luis R. Gutierrez","image": "img/NA.jpg","title": "Crosswalk on the Lake","material": "Median Street And Traffic Paint","medium": "Painting","date": "1/1/16 0:00","location": "Transportation Department","address": "3701 Lake Austin Blvd","zip": "78703","lat": 30.29417,"lon": -97.78246,"FIELD12": null,"FIELD13": "","FIELD14": ""},{"artist": "Sharon  Engelstein","image": "img/Crullers1.jpg","title": "Crullers (Big Mama Baby - comprised of Big Mama Baby, Little Mama and Tall Solo)","material": "Pigmented Glass Fiber Reinforced Concrete Over Structural Foam And Steel Armature","medium": "Mixed Media","date": "1/1/16 0:00","location": "Second Street Bridge and Extension","address": "708-1/2 W 2nd St.","zip": "78701","lat": 30.266464,"lon": -97.75155,"FIELD12": null,"FIELD13": "","FIELD14": ""},{"artist": "Sharon  Engelstein","image": "img/Crullers2.jpg","title": "Crullers (Little Mama - comprised of Big Mama Baby, Little Mama and Tall Solo)","material": "Pigmented Glass Fiber Reinforced Concrete Over Structural Foam And Steel Armature","medium": "Mixed Media","date": "1/1/16 0:00","location": "Second Street Bridge and Extension","address": "708-1/2 W 2nd St.","zip": "78701","lat": 30.26645,"lon": -97.751605,"FIELD12": null,"FIELD13": "","FIELD14": ""},{"artist": "Sharon  Engelstein","image": "img/Crullers3.jpg","title": "Crullers (Tall Solo - comprised of Big Mama Baby, Little Mama and Tall Solo)","material": "Pigmented Glass Fiber Reinforced Concrete Over Structural Foam And Steel Armature","medium": "Mixed Media","date": "1/1/16 0:00","location": "Second Street Bridge and Extension","address": "215 West Ave.","zip": "78701","lat": 30.267292,"lon": -97.751659,"FIELD12": null,"FIELD13": "","FIELD14": ""},{"artist": "Jack L. Schuller","image": "img/NA.jpg","title": "Crumleys Market","material": "Acrylic On Canvas","medium": "Painting","date": "1/1/92 0:00","location": "City Hall and Public Plaza","address": "301 W Second St","zip": "78701","lat": 30.26479,"lon": -97.74729,"FIELD12": null,"FIELD13": "","FIELD14": ""},{"artist": "Dharmesh  Patel,  Autumn J.  Ewalt","image": "img/Crystalline.jpg","title": "Crystalline #1","material": "Stainless Steel","medium": "Sculpture","date": "1/1/13 0:00","location": "Colorado Streetscape","address": "Colorado Street","zip": "78701","lat": 30.266031,"lon": -97.745115,"FIELD12": null,"FIELD13": "","FIELD14": ""},{"artist": "Dharmesh  Patel,  Autumn J.  Ewalt","image": "img/Crystalline2.jpg","title": "Crystalline #2","material": "Stainless Steel","medium": "Sculpture","date": "1/1/13 0:00","location": "Colorado Streetscape","address": "Colorado Street","zip": "78701","lat": 30.266748,"lon": -97.744676,"FIELD12": null,"FIELD13": "","FIELD14": ""},{"artist": "Dharmesh  Patel,  Autumn J.  Ewalt","image": "img/Crystalline3.jpg","title": "Crystalline #3","material": "Stainless Steel","medium": "Sculpture","date": "1/1/13 0:00","location": "Colorado Streetscape","address": "Colorado Street","zip": "78701","lat": 30.268244,"lon": -97.744283,"FIELD12": null,"FIELD13": "","FIELD14": ""},{"artist": "Dharmesh  Patel,  Autumn J.  Ewalt","image": "img/Crystalline4.jpg","title": "Crystalline #4","material": "Stainless Steel","medium": "Sculpture","date": "1/1/13 0:00","location": "Colorado Streetscape","address": "Colorado Street","zip": "78701","lat": 30.26876,"lon": -97.744173,"FIELD12": null,"FIELD13": "","FIELD14": ""},{"artist": "Dharmesh  Patel,  Autumn J.  Ewalt","image": "img/Crystalline5.jpg","title": "Crystalline #5","material": "Stainless Steel","medium": "Sculpture","date": "1/1/17 0:00","location": "Colorado Streetscape","address": "Colorado Street and Cesar Chavez Street","zip": "78701","lat": 30.264017,"lon": -97.745695,"FIELD12": null,"FIELD13": "","FIELD14": ""},{"artist": "Dharmesh  Patel,  Autumn J.  Ewalt","image": "img/Crystalline6.jpg","title": "Crystalline #6","material": "Stainless Steel","medium": "Sculpture","date": "1/1/17 0:00","location": "Colorado Streetscape","address": "Colorado Street and 2nd Street","zip": "78701","lat": 30.264939,"lon": -97.745523,"FIELD12": null,"FIELD13": "","FIELD14": ""},{"artist": "Dharmesh  Patel,  Autumn J.  Ewalt","image": "img/Crystalline7.jpg","title": "Crystalline #7","material": "Stainless Steel","medium": "Sculpture","date": "1/1/17 0:00","location": "Colorado Streetscape","address": "Colorado Street and 7th Street","zip": "78701","lat": 30.269495,"lon": -97.743657,"FIELD12": null,"FIELD13": "","FIELD14": ""},{"artist": "Dharmesh  Patel,  Autumn J.  Ewalt","image": "img/Crystalline8.jpg","title": "Crystalline #8","material": "Stainless Steel","medium": "Sculpture","date": "1/1/17 0:00","location": "Colorado Streetscape","address": "Colorado Street and 8th Street","zip": "78701","lat": 30.270443,"lon": -97.74346,"FIELD12": null,"FIELD13": "","FIELD14": ""},{"artist": "Jill  Bedgood","image": "img/NA.jpg","title": "Currency","material": "Bronze","medium": "Sculpture","date": "1/1/14 0:00","location": "Second Street District","address": "W Second St","zip": "78701","lat": 30.263715,"lon": -97.741873,"FIELD12": null,"FIELD13": "","FIELD14": ""},{"artist": "Andrew Bellatti Green,  Adam  Pyrek","image": "img/NA.jpg","title": "Cyclical Interplay","material": "Waterjet Cut Steel, Cast Concrete, Telemetry Components, Gears","medium": "Mixed Media","date": "1/1/14 0:00","location": "Vic Mathias Shores","address": "800 W Riverside Dr","zip": "78704","lat": 30.260664,"lon": -97.749049,"FIELD12": null,"FIELD13": "","FIELD14": ""},{"artist": "Stanley Studio  ","image": "img/NA.jpg","title": "Cypress Grove","material": "Stainless Steel, Concrete, Limestone, Drinking Fountain","medium": "Mixed Media","date": "1/1/15 0:00","location": "Second Street District","address": "W Second St","zip": "78701","lat": 30.264309,"lon": -97.743987,"FIELD12": null,"FIELD13": "","FIELD14": ""},{"artist": "Jennifer  Chenoweth","image": "img/Cosmos.jpg","title": "Dance of the Cosmos","material": "Concrete, Steel, Actuator, Solar Electrical Components","medium": "Mosaic","date": "1/1/15 0:00","location": "Patterson Park","address": "4200 Brookview Rd","zip": "78722","lat": 30.294774,"lon": -97.708601,"FIELD12": null,"FIELD13": "","FIELD14": ""},{"artist": "Rene  Anguiano","image": "img/NA.jpg","title": "Dawn to Dusk","material": "14 Acrylic Paintings","medium": "Painting","date": "1/1/98 0:00","location": "Cepeda Branch Library","address": "651 N Pleasant Valley Rd","zip": "78702","lat": 30.259081,"lon": -97.708902,"FIELD12": null,"FIELD13": "","FIELD14": ""},{"artist": "Wanda  Montemayor,  Lisa Kay  Orr","image": "img/NA.jpg","title": "Deep Eddy Mural Project","material": "Handmade Ceramic Tiles, Glass Tiles","medium": "Mosaic","date": "1/1/11 0:00","location": "Deep Eddy Pool","address": "401 Deep Eddy Dr","zip": "78703","lat": 30.277201,"lon": -97.772897,"FIELD12": null,"FIELD13": "","FIELD14": ""},{"artist": "Will  Larson","image": "img/Discovery.jpg","title": "Discovery","material": "Metal And Limestone","medium": "Sculpture","date": "1/1/02 0:00","location": "Ruiz Branch Library","address": "1600 Grove Blvd","zip": "78702","lat": 30.229862,"lon": -97.707011,"FIELD12": null,"FIELD13": "","FIELD14": ""},{"artist": "Sandra  Fiedorek,  David  Heymann","image": "img/NA.jpg","title": "Doctor Pangloss","material": "20 Metal Trash Receptacles","medium": "Sculpture","date": "1/1/99 0:00","location": "Household Hazardous Waste Facility","address": "3810 Todd Ln","zip": "78744","lat": 30.213491,"lon": -97.737668,"FIELD12": null,"FIELD13": "","FIELD14": ""},{"artist": "Unknown Artist","image": "img/NA.jpg","title": "Don Vito Alessio Robles","material": "Cast Bronze, Metal, Tile","medium": "Mixed Media","date": "1/1/00 0:00","location": "Plaza Saltillo","address": "408 Comal St","zip": "78702","lat": 30.261929,"lon": -97.727242,"FIELD12": null,"FIELD13": "","FIELD14": ""},{"artist": "Pio  Pulido","image": "img/DoveHealing.jpg","title": "Dove and the Leaves of Healing","material": "Fiberglass, Concrete","medium": "Sculpture","date": "1/1/96 0:00","location": "EMS Station 4","address": "1201 Webberville Rd","zip": "78721","lat": 30.27809,"lon": -97.684298,"FIELD12": null,"FIELD13": "","FIELD14": ""},{"artist": "Elisabet  Ney","image": "img/NA.jpg","title": "Dr. David Thomas Iglehart","material": "Bronze, Limestone","medium": "Sculpture","date": "1/1/03 0:00","location": "Symphony Square","address": "1101 Red River St","zip": "78701","lat": 30.271352,"lon": -97.734996,"FIELD12": null,"FIELD13": "","FIELD14": ""},{"artist": "David  Deming","image": "img/NA.jpg","title": "Eagle ll","material": "Weathered Steel","medium": "Sculpture","date": "1/1/76 0:00","location": "Faulk Central Library","address": "800 Guadalupe St","zip": "78701","lat": 30.271302,"lon": -97.746017,"FIELD12": null,"FIELD13": "","FIELD14": ""},{"artist": "Martin  Garcia","image": "img/eastsidecompass.jpg","title": "East Side Compass","material": "Cast Concrete, Stain","medium": "Sculpture","date": "1/1/11 0:00","location": "E. Seventh Street Obelisco at Pleasant Valley Rd.","address": "E 7th and Pleasant Valley Rd","zip": "78702","lat": 30.26007,"lon": -97.709473,"FIELD12": null,"FIELD13": "","FIELD14": ""},{"artist": "Connie  Arismendi","image": "img/ElFuturo.jpg","title": "El futuro es una página en blanco. Qué escribirás en ella?","material": "Aquajet Cut Aluminum","medium": "Sculpture","date": "1/1/05 0:00","location": "Terrazas Branch Library","address": "1105 E Cesar Chavez St","zip": "78702","lat": 30.260012,"lon": -97.733324,"FIELD12": null,"FIELD13": "","FIELD14": ""},{"artist": "Murray Legge, Deborah Lewis, Andrea Legge  ","image": "img/elevatedprairie.jpg","title": "Elevated Prairie","material": "Steel Planters, Fountain, Earth Berms, And Native Landscaping","medium": "Mixed Media","date": "1/1/04 0:00","location": "Central East Austin Police Substation","address": "812 Springdale Rd","zip": "78702","lat": 30.259173,"lon": -97.699814,"FIELD12": null,"FIELD13": "","FIELD14": ""},{"artist": "Brad J. Goldberg","image": "img/placehistory.jpg","title": "Every Place A History","material": "Red Granite, Texas Limestone","medium": "Sculpture","date": "1/1/11 0:00","location": "Health and Human Services Betty Dunkerley Campus","address": "7201 Levander Loop","zip": "78702","lat": 30.251847,"lon": -97.690501,"FIELD12": null,"FIELD13": "","FIELD14": ""},{"artist": "Victor Perez-Rul","image": "img/exoskeleton.jpg","title": "Exoskeleton","material": "Solar Hardware, Steel, And Powder Coating","medium": "1/1/17 0:00","date": "Emma S. Barrientos Mexican American Cultural Center","location": "600 River St","address": "Austin","zip": "TX","lat": 78701,"lon": 30.258163,"FIELD12": -97.740239,"FIELD13": "","FIELD14": "(30.258163000000003, -97.740239)"},{"artist": "Lars  Stanley","image": "img/FireInTheHeart.jpg","title": "Fire in the Heart","material": "Steel Gate, Pillars And Light Sconces","medium": "Landscape","date": "1/1/90 0:00","location": "Fire Station 17","address": "4123 S First St","zip": "78745","lat": 30.224806,"lon": -97.770849,"FIELD12": null,"FIELD13": "","FIELD14": ""},{"artist": "Stefanie  Distefano","image": "img/Flamingo.jpg","title": "Flamingo Mitote","material": "Ceramic Tiles, Mirrored Tiles","medium": "Mosaic","date": "1/1/12 0:00","location": "Patterson Park","address": "4201 Brookview Rd","zip": "78722","lat": 30.296222,"lon": -97.709338,"FIELD12": null,"FIELD13": "","FIELD14": ""},{"artist": "Marla  Camp","image": "img/NA.jpg","title": "Flights of Fancy","material": "Acrylic Paint, Metal","medium": "Painting","date": "1/1/98 0:00","location": "Yarborough Branch Library","address": "2200 Hancock Dr","zip": "78756","lat": 30.323427,"lon": -97.740711,"FIELD12": null,"FIELD13": "","FIELD14": ""},{"artist": "Laura  Garanzuay","image": "img/NA.jpg","title": "Flow","material": "Stainless Steel Hardware","medium": "Sculpture","date": "1/1/15 0:00","location": "Second Street District","address": "W Second St","zip": "78701","lat": 30.2654,"lon": -97.747762,"FIELD12": null,"FIELD13": "","FIELD14": ""},{"artist": "Archaic (Kincannon Studios)  ","image": "img/NA.jpg","title": "For Jeep, With Love","material": "Carved Limestone","medium": "Sculpture","date": "1/1/01 0:00","location": "Palmer Events Center","address": "900 Barton Springs Rd","zip": "78704","lat": 30.260248,"lon": -97.753415,"FIELD12": null,"FIELD13": "","FIELD14": ""},{"artist": "Robert  Herrera","image": "img/ForLaRaza.jpg","title": "For La Raza","material": "Acrylic Paint","medium": "Painting","date": "1/1/92 0:00","location": "Holly Street Power Plant","address": "2400 Holly St","zip": "78702","lat": 30.249525,"lon": -97.72138,"FIELD12": null,"FIELD13": "","FIELD14": ""},{"artist": "Hawkeye  Glenn,  Lizzie  Martinez","image": "img/NA.jpg","title": "Formation, language, memory","material": "Sunset Red Granite, Leuders Limestone, Steel Planters, Paint.","medium": "Mixed Media","date": "1/1/10 0:00","location": "Joseph and Susanna Dickinson Hannig Museum","address": "411 E Fifth St","zip": "78701","lat": 30.26572,"lon": -97.738868,"FIELD12": null,"FIELD13": "","FIELD14": ""},{"artist": "Robert  Levers","image": "img/terrorists.jpg","title": "Four Terrorists Trapped in a Bullring","material": "Soft Ground Etching","medium": "Landscape","date": "1/1/93 0:00","location": "Learning and Research Center","address": "2800 Spirit of Texas Dr","zip": "78719","lat": 30.2116,"lon": -97.66992,"FIELD12": null,"FIELD13": "","FIELD14": ""},{"artist": "Paul  Sorey","image": "img/NA.jpg","title": "Fractal Tree","material": "Stainless Steel","medium": "Sculpture","date": "1/1/13 0:00","location": "Cirrus Logic Inc.","address": "800 W Sixth St","zip": "78701","lat": 30.270527,"lon": -97.750899,"FIELD12": null,"FIELD13": "","FIELD14": ""},{"artist": "Ben  Harman","image": "img/NA.jpg","title": "Gear Grove","material": "Stainless Steel, Mild Steel, Found Objects (repurposed Bike Gears)","medium": "Mixed Media","date": "1/1/13 0:00","location": "Congress Avenue Streetscape","address": "818 Congress Avenue","zip": "78701","lat": 30.270778,"lon": -97.741969,"FIELD12": null,"FIELD13": "","FIELD14": ""},{"artist": "Victor  Gutierrez","image": "img/NA.jpg","title": "General Ignacio Zaragoza","material": "Bronze","medium": "Sculpture","date": "1/1/96 0:00","location": "Parque Zaragoza Recreation Center","address": "2608 Gonzales St","zip": "78702","lat": 30.261743,"lon": -97.711567,"FIELD12": null,"FIELD13": "","FIELD14": ""},{"artist": "Hunter  Cross","image": "img/Geode.jpg","title": "Geode","material": "Plaster, Glass, Electrical, Metal, Concrete","medium": "Mixed Media","date": "1/1/14 0:00","location": "Northwest Greenway","address": "4624 1/2 James Wheat St","zip": "78723","lat": 30.30066,"lon": -97.704586,"FIELD12": null,"FIELD13": "","FIELD14": ""},{"artist": "Eddie  Dixon","image": "img/NA.jpg","title": "Go Forth","material": "Cast Bronze","medium": "Sculpture","date": "1/1/05 0:00","location": "George Washington Carver Museum and Cultural Center","address": "1165 Angelina St","zip": "78702","lat": 30.269565,"lon": -97.724044,"FIELD12": null,"FIELD13": "","FIELD14": ""},{"artist": "Urban Matter Inc.","image": "img/GoldenAfternoon.jpg","title": "Golden Afternoon","material": "Stainless Steel, Fiber Optic Cable, Light Emitting Diodes","medium": "Mixed Media","date": "1/1/16 0:00","location": "Seaholm Parking Structure","address": "211 Walter Seaholm Dr","zip": "78701","lat": 30.267777,"lon": -97.752855,"FIELD12": null,"FIELD13": "","FIELD14": ""},{"artist": "Unknown Artist","image": "img/NA.jpg","title": "Granite Gates","material": "Carved Granite","medium": "Sculpture","date": "1/1/98 0:00","location": "Zilker Botanical Gardens","address": "2220 Barton Springs Rd","zip": "78746","lat": 30.26881,"lon": -97.77119,"FIELD12": null,"FIELD13": "","FIELD14": ""},{"artist": "Jimmy  Jalapeeno","image": "img/NA.jpg","title": "Green Austin Series","material": "7 Oil Paintings On Canvas","medium": "Painting","date": "1/1/90 0:00","location": "Austin Bergstrom International Airport","address": "3600 Presidential Blvd","zip": "78719","lat": 30.20227,"lon": -97.66681,"FIELD12": null,"FIELD13": "","FIELD14": ""},{"artist": "Berthold  Haas","image": "img/grottowall.jpg","title": "Grotto Wall at Sparky Park","material": "Karst Stone, Steel, Mirror Balls, Various Stone, Aggregates, Masonry, Petrified Wood, Fossils, Seashells, Ceramic, Found Objects","medium": "Mixed Media","date": "1/1/08 0:00","location": "Sparky Park","address": "3701 Grooms St","zip": "78705","lat": 30.299035,"lon": -97.732193,"FIELD12": null,"FIELD13": "","FIELD14": ""},{"artist": "Wanda  Gamble","image": "img/NA.jpg","title": "Hidden Canyon","material": "Oil On Canvas","medium": "Painting","date": "1/1/93 0:00","location": "Cultural Arts Division Offices","address": "201 E 2nd St","zip": "78701","lat": 30.2638,"lon": -97.74222,"FIELD12": null,"FIELD13": "","FIELD14": ""},{"artist": "Deborah  Mersky","image": "img/NA.jpg","title": "High Water Mark","material": "Nineteen Stainless Steel Laser-cut Panels With Porcelain Enamel Insets","medium": "Sculpture","date": "1/1/08 0:00","location": "Cesar Chavez Streetscape","address": "Cesar Chavez at S First St","zip": "78701","lat": 30.264098,"lon": -97.747932,"FIELD12": null,"FIELD13": "","FIELD14": ""},{"artist": "Thomas  Evans","image": "img/NA.jpg","title": "Hill of the Medicine Man","material": "9 Oil On Canvas Panels","medium": "Painting","date": "1/1/99 0:00","location": "Austin Bergstrom International Airport","address": "3600 Presidential Blvd","zip": "78719","lat": 30.20239,"lon": -97.66621,"FIELD12": null,"FIELD13": "","FIELD14": ""},{"artist": "Raul  Valdez","image": "img/hillsidemural.jpg","title": "Hillside Mural","material": "Acrylic Paint On Existing Cement And Cinderblock Walls","medium": "Painting","date": "1/1/78 0:00","location": "Oswaldo A. B. Cantu/Pan American Hillside Theatre","address": "2100 E Third St","zip": "78702","lat": 30.25862,"lon": -97.721557,"FIELD12": null,"FIELD13": "","FIELD14": ""},{"artist": "Philippe  Klinefelter","image": "img/hourglass.jpg","title": "Hour Glass Seating Arbor","material": "Granite, Steel, Landscaping","medium": "Landscape","date": "1/1/06 0:00","location": "Rosewood-Zaragoza Neighborhood Center","address": "2800 Webberville Rd","zip": "78702","lat": 30.265427,"lon": -97.710536,"FIELD12": null,"FIELD13": "","FIELD14": ""},{"artist": "Margo  Sawyer","image": "img/NA.jpg","title": "Index For Contemplation","material": "Powder-coated Metal","medium": "Sculpture","date": "1/1/02 0:00","location": "Austin Convention Center","address": "500 E Cesar Chavez St","zip": "78701","lat": 30.263713,"lon": -97.739702,"FIELD12": null,"FIELD13": "","FIELD14": ""},{"artist": "Chris  Levack","image": "img/NA.jpg","title": "Iron Wave","material": "Steel Ramp With Rolled Steel Pipe, Sheet And Rods, Painted, Concrete Foundation.","medium": "Landscape","date": "1/1/11 0:00","location": "Heath Eiland and Morgan Moss BMX Skate Park","address": "1213 Shoal Creek Blvd","zip": "78701","lat": 30.277232,"lon": -97.749802,"FIELD12": null,"FIELD13": "","FIELD14": ""},{"artist": "Priscilla  Robinson","image": "img/NA.jpg","title": "Italianos 1,2,3; Indian Land 1; Pueblo Trees; On the Way","material": "Six Pastel Drawings","medium": "Drawing","date": "1/1/90 0:00","location": "Cultural Arts Division Offices","address": "201 E 2nd St","zip": "78701","lat": 30.26365,"lon": -97.7429,"FIELD12": null,"FIELD13": "","FIELD14": ""},{"artist": "Juan Antonio  Lugo Villegas","image": "img/NA.jpg","title": "Jose Maria Morelos y Pavon","material": "Bronze, Cast Cement Pedestal","medium": "Sculpture","date": "1/1/03 0:00","location": "Republic Square Park","address": "422 Guadalupe St","zip": "78701","lat": 30.267803,"lon": -97.747648,"FIELD12": null,"FIELD13": "","FIELD14": ""},{"artist": "Sara  Hickman","image": "img/NA.jpg","title": "Keep Austin Weird","material": "Stickers And Paper On Fiberglass","medium": "Mixed Media","date": "1/1/06 0:00","location": "Austin Bergstrom International Airport","address": "3600 Presidential Blvd","zip": "78719","lat": 30.20208,"lon": -97.66698,"FIELD12": null,"FIELD13": "","FIELD14": ""},{"artist": "Misty  Keasler","image": "img/NA.jpg","title": "Kids in the Mirror, Orphanage at Svir Stroi, Svir Stroi, Russia","material": "C-print On Fujicolor Crystal Archive Paper","medium": "Print","date": "1/1/02 0:00","location": "Health and Human Services Betty Dunkerley Campus","address": "7201 Levander Loop","zip": "78702","lat": 30.253828,"lon": -97.689018,"FIELD12": null,"FIELD13": "","FIELD14": ""},{"artist": "Roger  Colombik,  Jerolyn  Bahm-Colombik","image": "img/LaFuente.jpg","title": "La Fuente en Calle Segunda / The Spring of Second Street","material": "Bronze, Aluminum","medium": "Sculpture","date": "1/1/10 0:00","location": "Second Street District","address": "W Second St","zip": "78701","lat": 30.26992,"lon": -97.74332,"FIELD12": null,"FIELD13": "","FIELD14": ""},{"artist": "Delfin  Escalante","image": "img/NA.jpg","title": "La Guitarra","material": "Acrylic Paint And Marker On Fiberglass","medium": "Painting","date": "1/1/06 0:00","location": "Austin Bergstrom International Airport","address": "3600 Presidential Blvd","zip": "78719","lat": 30.20208,"lon": -97.66698,"FIELD12": null,"FIELD13": "","FIELD14": ""},{"artist": "David  Serrano","image": "img/lapinata.jpg","title": "La Pinata","material": "Serigraph","medium": "Print","date": "1/1/96 0:00","location": "Learning and Research Center","address": "2800 Spirit of Texas Dr","zip": "78719","lat": 30.2116,"lon": -97.66992,"FIELD12": null,"FIELD13": "","FIELD14": ""},{"artist": "Fidencio  Duran","image": "img/NA.jpg","title": "La Quinceanera- 15th Birthday","material": "Acrylic Paint","medium": "Painting","date": "1/1/92 0:00","location": "Holly Street Power Plant","address": "2400 Holly St","zip": "78702","lat": 30.251077,"lon": -97.719286,"FIELD12": null,"FIELD13": "","FIELD14": ""},{"artist": "Victoria  Smith","image": "img/NA.jpg","title": "Lady Bird Johnson Wildflower Spring #1","material": "Archival Iris Giclee Photograph On Somerset Watercolor Paper","medium": "Print","date": "1/1/99 0:00","location": "Health and Human Services Betty Dunkerley Campus","address": "7201 Levander Loop","zip": "78702","lat": 30.253828,"lon": -97.689018,"FIELD12": null,"FIELD13": "","FIELD14": ""},{"artist": "Victoria  Smith","image": "img/NA.jpg","title": "Lady Bird Johnson Wildflower Spring #2","material": "Archival Iris Giclee Photograph On Somerset Watercolor Paper","medium": "Print","date": "1/1/99 0:00","location": "Health and Human Services Betty Dunkerley Campus","address": "7201 Levander Loop","zip": "78702","lat": 30.253828,"lon": -97.689018,"FIELD12": null,"FIELD13": "","FIELD14": ""},{"artist": "Victoria  Smith","image": "img/NA.jpg","title": "Lady Bird Johnson Wildflower Spring #3","material": "Archival Iris Giclee Photograph On Somerset Watercolor Paper","medium": "Print","date": "1/1/99 0:00","location": "Health and Human Services Betty Dunkerley Campus","address": "7201 Levander Loop","zip": "78702","lat": 30.253828,"lon": -97.689018,"FIELD12": null,"FIELD13": "","FIELD14": ""},{"artist": "Jim  Beckett","image": "img/NA.jpg","title": "Lady Bird Lake: Morning","material": "Archival Inkjet Print","medium": "Print","date": "1/1/11 0:00","location": "City Hall and Public Plaza","address": "301 W Second St","zip": "78701","lat": 30.26479,"lon": -97.74729,"FIELD12": null,"FIELD13": "","FIELD14": ""},{"artist": "Virginia  Fleck","image": "img/NA.jpg","title": "Lamina Groove","material": "Archival IRIS Print On Somerset Watercolor Paper","medium": "Print","date": "1/1/02 0:00","location": "EMS Station 17 / Deep Eddy","address": "2307 Foster Ave","zip": "78703","lat": 30.277331,"lon": -97.772569,"FIELD12": null,"FIELD13": "","FIELD14": ""},{"artist": "Leah Davis, Robert Gay, Jack Sanders  ","image": "img/NA.jpg","title": "Lance Armstrong Bikeway ","material": "Powder Coated Steel, Solar Panel, Solar Controller, Concrete","medium": "Mixed Media","date": "1/1/09 0:00","location": "Lance Armstrong Bikeway","address": "From Veterans Dr/MoPac to 5th/Shady Lane","zip": "","lat": null,"lon": null,"FIELD12": null,"FIELD13": "","FIELD14": ""},{"artist": "Stefanie  Distefano","image": "img/ForeverMosaic.jpg","title": "Larry Monroe Forever Mosaic","material": "Clay, Mirror, Found Objects","medium": "Mixed Media","date": "1/1/15 0:00","location": "Bridge over Blunn Creek","address": "1506 East Side Drive","zip": "78704","lat": 30.247499,"lon": -97.7444,"FIELD12": null,"FIELD13": "","FIELD14": ""},{"artist": "Martin  Garcia","image": "img/NA.jpg","title": "Las Acciones del Pasado Aseguran el Exito Hacia el Futuro","material": "Acrylic Paint","medium": "Painting","date": "1/1/04 0:00","location": "Oswaldo A. B. Cantu/Pan American Recreation Center","address": "2100 E Third St","zip": "78702","lat": 30.258079,"lon": -97.720882,"FIELD12": null,"FIELD13": "","FIELD14": ""},{"artist": "John  Christensen","image": "img/NA.jpg","title": "Leaf, Pod & Samara","material": "Cast Concrete","medium": "Sculpture","date": "1/1/99 0:00","location": "Austin Bergstrom International Airport","address": "3600 Presidential Blvd","zip": "78719","lat": 30.20224,"lon": -97.66748,"FIELD12": null,"FIELD13": "","FIELD14": ""},{"artist": "Jimmy  Luu","image": "img/NA.jpg","title": "Letterscape","material": "Steel Landscape Edging With Planted Grasses","medium": "Landscape","date": "1/1/08 0:00","location": "Health and Human Services Betty Dunkerley Campus","address": "7201 Levander Loop","zip": "78702","lat": 30.252586,"lon": -97.6897,"FIELD12": null,"FIELD13": "","FIELD14": ""},{"artist": "Rodolfo  Ybarra","image": "img/NA.jpg","title": "Lone Star Gazebo","material": "Galvanized Steel","medium": "Sculpture","date": "1/1/95 0:00","location": "Butler Hike and Bike Trail at Lady Bird Lake","address": "700 W Cesar Chavez St","zip": "78701","lat": 30.265813,"lon": -97.753598,"FIELD12": null,"FIELD13": "","FIELD14": ""},{"artist": "Sunyong  Chung,  Philippe  Klinefelter","image": "img/Lotus.jpg","title": "Lotus","material": "Granite, Hand-made Ceramic Tiles","medium": "Sculpture","date": "1/1/13 0:00","location": "Asian American Resource Center","address": "8401 Cameron Rd","zip": "78754","lat": 30.339817,"lon": -97.680635,"FIELD12": null,"FIELD13": "","FIELD14": ""},{"artist": "The Austin Group","image": "img/NA.jpg","title": "Lou Neff Point Gazebo","material": "Round Steel Tubing, Iron","medium": "Sculpture","date": "1/1/93 0:00","location": "Butler Hike and Bike Trail at Lady Bird Lake","address": "2100 Lou Neff Rd","zip": "78746","lat": 30.267254,"lon": -97.76169,"FIELD12": null,"FIELD13": "","FIELD14": ""},{"artist": "Angel  Quesada","image": "img/lyonsroad.jpg","title": "Lyons Road Pastoral Scene Mural","material": "Masonry, Latex Based Enamel Paint","medium": "Mixed Media","date": "1/1/10 0:00","location": "Lyons Road Bridge","address": "2828 Lyons Rd","zip": "78702","lat": 30.261903,"lon": -97.702233,"FIELD12": null,"FIELD13": "","FIELD14": ""},{"artist": "Rolando Briseo","image": "img/NA.jpg","title": "Macro / Micro Culture","material": "Giclee Print","medium": "Print","date": "1/1/02 0:00","location": "Austin Convention Center","address": "500 E Cesar Chavez St","zip": "78701","lat": 30.263956,"lon": -97.739478,"FIELD12": null,"FIELD13": "","FIELD14": ""},{"artist": "Ned  Kahn","image": "img/NA.jpg","title": "Magnetic Column","material": "Carbon Steel, Tempered Glass, Neodymium Magnets, Magnetite Sand, Black Nylon Bushings","medium": "Mixed Media","date": "1/1/12 0:00","location": "Austin Energy System Control Center","address": "2500 Montopolis Dr","zip": "78741","lat": 30.219972,"lon": -97.708788,"FIELD12": null,"FIELD13": "","FIELD14": ""},{"artist": "Reynaldo Alaniz","image": "img/maya.jpg","title": "Maya","material": "Limestone","medium": "1/1/17 0:00","date": "Emma S. Barrientos Mexican American Cultural Center","location": "600 River St","address": "Austin","zip": "TX","lat": 78701,"lon": 30.258163,"FIELD12": -97.740239,"FIELD13": "","FIELD14": "(30.258163000000003, -97.740239)"},{"artist": "Armando (Tanner)  Martinez","image": "img/NA.jpg","title": "Me Barrio","material": "Acrylic Paint","medium": "Painting","date": "1/1/91 0:00","location": "Holly Street Power Plant","address": "2400 Holly St","zip": "78702","lat": 30.250904,"lon": -97.718662,"FIELD12": null,"FIELD13": "","FIELD14": ""},{"artist": "Hugo  Villa","image": "img/texas.jpg","title": "Memorial to the Great Builders of Texas","material": "Bronze, Granite, Concrete","medium": "Mixed Media","date": "1/1/38 0:00","location": "ROW at 11th and Colorado","address": "11th St and Colorado St","zip": "78701","lat": 30.274459,"lon": -97.742727,"FIELD12": null,"FIELD13": "","FIELD14": ""},{"artist": "L.W. Stolz Memorials","image": "img/wwii.jpg","title": "Memorial to the World War ll Dead","material": "Bronze, Granite","medium": "Sculpture","date": "1/1/49 0:00","location": "ROW at 11th and Colorado","address": "11th St and Colorado St","zip": "78701","lat": 30.273339,"lon": -97.742756,"FIELD12": null,"FIELD13": "","FIELD14": ""},{"artist": "Armando (Tanner)  Martinez","image": "img/MetzPool.jpg","title": "Metz Pool House Mural","material": "Spray Paint, Airbrush","medium": "Painting","date": "1/1/90 0:00","location": "Metz Pool","address": "2407 Canterbury St","zip": "78702","lat": 30.252855,"lon": -97.719154,"FIELD12": null,"FIELD13": "","FIELD14": ""},{"artist": "Juan Antonio  Lugo Villegas","image": "img/NA.jpg","title": "Miguel Hidalgo y Costilla","material": "Bronze, Cast Cement Pedestal","medium": "Sculpture","date": "1/1/03 0:00","location": "Republic Square Park","address": "422 Guadalupe St","zip": "78701","lat": 30.267788,"lon": -97.747647,"FIELD12": null,"FIELD13": "","FIELD14": ""},{"artist": "Carl  Trominski","image": "img/NA.jpg","title": "Moments","material": "Paint, Metal Reflective Panels","medium": "Painting","date": "1/1/03 0:00","location": "Lamar Bridge Underpass","address": "300 N Lamar Blvd","zip": "78703","lat": 30.269366,"lon": -97.754881,"FIELD12": null,"FIELD13": "","FIELD14": ""},{"artist": "Fidencio  Duran","image": "img/MontopolisUSA.jpg","title": "Montopolis USA","material": "Acrylic Paint On Board","medium": "Painting","date": "1/1/03 0:00","location": "Montopolis Neighborhood Center","address": "1416 Montopolis Dr","zip": "78741","lat": 30.22915,"lon": -97.701347,"FIELD12": null,"FIELD13": "","FIELD14": ""},{"artist": "Shalena White","image": "img/NA.jpg","title": "Mountain Laurel Mandala II","material": "Texas Mountain Laurel Seeds, Sewing Pins","medium": "Misc","date": "1/1/14 0:00","location": "City Hall and Public Plaza","address": "301 W Second St","zip": "78701","lat": 30.26482,"lon": -97.746956,"FIELD12": null,"FIELD13": "","FIELD14": ""},{"artist": "Sharon Roy Finch","image": "img/NA.jpg","title": "MusiCapital","material": "Graphite, Oils And Sealant On Fiberglass","medium": "Mixed Media","date": "1/1/06 0:00","location": "Austin Bergstrom International Airport","address": "3600 Presidential Blvd","zip": "78719","lat": 30.20208,"lon": -97.66698,"FIELD12": null,"FIELD13": "","FIELD14": ""},{"artist": "Howard  Weliver","image": "img/NA.jpg","title": "Musician","material": "Enamel On Fiberglass","medium": "Sculpture","date": "1/1/06 0:00","location": "Austin Bergstrom International Airport","address": "3600 Presidential Blvd","zip": "78719","lat": 30.20208,"lon": -97.66698,"FIELD12": null,"FIELD13": "","FIELD14": ""},{"artist": "Dale  Whistler","image": "img/NA.jpg","title": "Nightwing","material": "Painted Aluminum, Concrete, Steel","medium": "Mixed Media","date": "1/1/98 0:00","location": "Congress Barton Springs Traffic Island","address": "100 1/2 Barton Springs Rd.","zip": "78704","lat": 30.259365,"lon": -97.746412,"FIELD12": null,"FIELD13": "","FIELD14": ""},{"artist": "Mark  Schatz","image": "img/NA.jpg","title": "Nobody Writes Poetry About the Trinity","material": "Cement","medium": "Sculpture","date": "1/1/14 0:00","location": "Second Street District","address": "W Second St","zip": "78701","lat": 30.263424,"lon": -97.740781,"FIELD12": null,"FIELD13": "","FIELD14": ""},{"artist": "Thoughtbarn","image": "img/Thoughtbarn_Garden.jpg","title": "North Austin Community Garden","material": "Wood, Steel, Paint, PVC-coated Steel Wire, Garden Plan","medium": "Landscape","date": "1/1/14 0:00","location": "North Austin Community Recreation Center","address": "1000 W Rundberg Ln","zip": "78758","lat": 30.364945,"lon": -97.700279,"FIELD12": null,"FIELD13": "","FIELD14": ""},{"artist": "Pete  Castilleja","image": "img/Nosotros.jpg","title": "Nosotros","material": "Acrylic Paint On CMU Wall, Painted Wood Frame","medium": "Painting","date": "1/1/74 0:00","location": "Metz Recreation Center","address": "2407 Canterbury St","zip": "78702","lat": 30.25226,"lon": -97.718377,"FIELD12": null,"FIELD13": "","FIELD14": ""},{"artist": "John Patrick Cobb","image": "img/NA.jpg","title": "O. Henry at Cards","material": "Pencil, Sumi Ink, Air Brush, Colored Varnish And White Enamel On Board; Cradled And Varnished With Matte Damar.","medium": "Drawing","date": "1/1/93 0:00","location": "O. Henry Museum","address": "409 E Fifth St","zip": "78701","lat": 30.265758,"lon": -97.739139,"FIELD12": null,"FIELD13": "","FIELD14": ""},{"artist": "Shelley  Wood","image": "img/NA.jpg","title": "Odessa","material": "Selenium-toned Silver Gelatin Print","medium": "Print","date": "1/1/01 0:00","location": "Health and Human Services Betty Dunkerley Campus","address": "7201 Levander Loop","zip": "78702","lat": 30.253828,"lon": -97.689018,"FIELD12": null,"FIELD13": "","FIELD14": ""},{"artist": "Gabel  Karsten","image": "img/onebyone.jpg","title": "One by One","material": "Multi-plate Aquatint","medium": "Misc","date": "1/1/96 0:00","location": "Learning and Research Center","address": "2800 Spirit of Texas Dr","zip": "78719","lat": 30.2116,"lon": -97.66992,"FIELD12": null,"FIELD13": "","FIELD14": ""},{"artist": "R+R Studios","image": "img/NA.jpg","title": "Open Room Austin","material": "Powder-coated Aluminum","medium": "Sculpture","date": "1/1/10 0:00","location": "Sand Beach Park","address": "200 Sandra Muraida Way","zip": "78701","lat": 30.26705,"lon": -97.754742,"FIELD12": null,"FIELD13": "","FIELD14": ""},{"artist": "Materials Coalition","image": "img/NA.jpg","title": "Opossum Temple and Voodoo Pew","material": "Painted Steel And Cast Concrete","medium": "Mixed Media","date": "1/1/93 0:00","location": "Butler Hike and Bike Trail at Lady Bird Lake","address": "1125 W Cesar Chavez St","zip": "78703","lat": 30.26776,"lon": -97.759543,"FIELD12": null,"FIELD13": "","FIELD14": ""},{"artist": "Ben  Appl","image": "img/ourhands.jpg","title": "Our Hands / Nuestras Manos","material": "Aluminum With Dye Oxides","medium": "Misc","date": "1/1/11 0:00","location": "E. Seventh St. Obelisco at Comal St.","address": "E 7th and Comal St","zip": "78702","lat": 30.263956,"lon": -97.726108,"FIELD12": null,"FIELD13": "","FIELD14": ""},{"artist": "James  Janknegt","image": "img/NA.jpg","title": "Our Neighborhood","material": "Oil On Canvas","medium": "Painting","date": "1/1/93 0:00","location": "Cultural Arts Division Offices","address": "201 E 2nd St","zip": "78701","lat": 30.26362,"lon": -97.74299,"FIELD12": null,"FIELD13": "","FIELD14": ""},{"artist": "Laurel  Butler,  Rita Starpattern","image": "img/outdoorstudio.jpg","title": "Outdoor Studio","material": "Painted Stucco On Concrete Masonry Units","medium": "Painting","date": "1/1/90 0:00","location": "Central Access Television Facility","address": "1143 Northwestern Ave","zip": "78702","lat": 30.269588,"lon": -97.715668,"FIELD12": null,"FIELD13": "","FIELD14": ""},{"artist": "Leticia Huerta","image": "img/padrenuestro.jpg","title": "Padre Nuestro","material": "Serigraph","medium": "Print","date": "1/1/96 0:00","location": "Learning and Research Center","address": "2800 Spirit of Texas Dr","zip": "78719","lat": 30.2116,"lon": -97.66992,"FIELD12": null,"FIELD13": "","FIELD14": ""},{"artist": "Fidencio  Duran","image": "img/zaragozamurals.jpg","title": "Parque Zaragoza Murals","material": "Acrylic Paint","medium": "Painting","date": "1/1/96 0:00","location": "Parque Zaragoza Recreation Center","address": "2608 Gonzales St","zip": "78702","lat": 30.261743,"lon": -97.711567,"FIELD12": null,"FIELD13": "","FIELD14": ""},{"artist": "Erin  Curtis","image": "img/PedGeometries1.jpg","title": "Pedestrian Geometries #1","material": "Elgin-Butler Glazed Brick, Mortar, Grout","medium": "Landscape","date": "1/1/13 0:00","location": "Third Street Streetscape","address": "301 Brazos St","zip": "78702","lat": 30.264994,"lon": -97.743148,"FIELD12": null,"FIELD13": "","FIELD14": ""},{"artist": "Erin  Curtis","image": "img/PedGeometries10.jpg","title": "Pedestrian Geometries #10","material": "Elgin-Butler Glazed Brick, Mortar, Grout","medium": "Landscape","date": "1/1/13 0:00","location": "Third Street Streetscape","address": "301 Brazos St","zip": "78702","lat": 30.265217,"lon": -97.743373,"FIELD12": null,"FIELD13": "","FIELD14": ""},{"artist": "Erin  Curtis","image": "img/PedGeometries11.jpg","title": "Pedestrian Geometries #11","material": "Elgin-Butler Glazed Brick, Mortar, Grout","medium": "Landscape","date": "1/1/13 0:00","location": "Third Street Streetscape","address": "301 Brazos St","zip": "78702","lat": 30.26522,"lon": -97.743363,"FIELD12": null,"FIELD13": "","FIELD14": ""},{"artist": "Erin  Curtis","image": "img/PedGeometries12.jpg","title": "Pedestrian Geometries #12","material": "Elgin-Butler Glazed Brick, Mortar, Grout","medium": "Landscape","date": "1/1/13 0:00","location": "Third Street Streetscape","address": "301 Brazos St","zip": "78702","lat": 30.265835,"lon": -97.74604,"FIELD12": null,"FIELD13": "","FIELD14": ""},{"artist": "Erin  Curtis","image": "img/PedGeometries16.jpg","title": "Pedestrian Geometries #16","material": "Elgin-Butler Glazed Brick, Mortar, Grout","medium": "Landscape","date": "1/1/13 0:00","location": "Third Street Streetscape","address": "301 Brazos St","zip": "78702","lat": 30.265831,"lon": -97.746029,"FIELD12": null,"FIELD13": "","FIELD14": ""},{"artist": "Erin  Curtis","image": "img/PedGeometries17.jpg","title": "Pedestrian Geometries #17","material": "Elgin-Butler Glazed Brick, Mortar, Grout","medium": "Landscape","date": "1/1/13 0:00","location": "Third Street Streetscape","address": "301 Brazos St","zip": "78702","lat": 30.265418,"lon": -97.744613,"FIELD12": null,"FIELD13": "","FIELD14": ""},{"artist": "Erin  Curtis","image": "img/PedGeometries18.jpg","title": "Pedestrian Geometries #18","material": "Elgin-Butler Glazed Brick, Mortar, Grout","medium": "Landscape","date": "1/1/13 0:00","location": "Third Street Streetscape","address": "301 Brazos St","zip": "78702","lat": 30.26431,"lon": -97.740749,"FIELD12": null,"FIELD13": "","FIELD14": ""},{"artist": "Erin  Curtis","image": "img/PedGeometries18B.jpg","title": "Pedestrian Geometries #18B","material": "Elgin-Butler Glazed Brick, Mortar, Grout","medium": "Landscape","date": "1/1/13 0:00","location": "Third Street Streetscape","address": "301 Brazos St","zip": "78702","lat": 30.266496,"lon": -97.748009,"FIELD12": null,"FIELD13": "","FIELD14": ""},{"artist": "Erin  Curtis","image": "img/PedGeometries19.jpg","title": "Pedestrian Geometries #19","material": "Elgin-Butler Glazed Brick, Mortar, Grout","medium": "Landscape","date": "1/1/13 0:00","location": "Third Street Streetscape","address": "301 Brazos St","zip": "78702","lat": 30.266722,"lon": -97.749248,"FIELD12": null,"FIELD13": "","FIELD14": ""},{"artist": "Erin  Curtis","image": "img/PedGeometries1B.jpg","title": "Pedestrian Geometries #1B","material": "Elgin-Butler Glazed Brick, Mortar, Grout","medium": "Landscape","date": "1/1/13 0:00","location": "Third Street Streetscape","address": "301 Brazos St","zip": "78702","lat": 30.26475,"lon": -97.741718,"FIELD12": null,"FIELD13": "","FIELD14": ""},{"artist": "Erin  Curtis","image": "img/PedGeometries2.jpg","title": "Pedestrian Geometries #2","material": "Elgin-Butler Glazed Brick, Mortar, Grout","medium": "Landscape","date": "1/1/13 0:00","location": "Third Street Streetscape","address": "301 Brazos St","zip": "78702","lat": 30.26544,"lon": -97.744665,"FIELD12": null,"FIELD13": "","FIELD14": ""},{"artist": "Erin  Curtis","image": "img/PedGeometries20.jpg","title": "Pedestrian Geometries #20","material": "Elgin-Butler Glazed Brick, Mortar, Grout","medium": "Landscape","date": "1/1/13 0:00","location": "Third Street Streetscape","address": "301 Brazos St","zip": "78702","lat": 30.266128,"lon": -97.747091,"FIELD12": null,"FIELD13": "","FIELD14": ""},{"artist": "Erin  Curtis","image": "img/PedGeometries21.jpg","title": "Pedestrian Geometries #21","material": "Elgin-Butler Glazed Brick, Mortar, Grout","medium": "Landscape","date": "1/1/13 0:00","location": "Third Street Streetscape","address": "301 Brazos St","zip": "78702","lat": 30.266099,"lon": -97.746556,"FIELD12": null,"FIELD13": "","FIELD14": ""},{"artist": "Erin  Curtis","image": "img/PedGeometries22.jpg","title": "Pedestrian Geometries #22","material": "Elgin-Butler Glazed Brick, Mortar, Grout","medium": "Landscape","date": "1/1/13 0:00","location": "Third Street Streetscape","address": "301 Brazos St","zip": "78702","lat": 30.263994,"lon": -97.740759,"FIELD12": null,"FIELD13": "","FIELD14": ""},{"artist": "Erin  Curtis","image": "img/PedGeometries23.jpg","title": "Pedestrian Geometries #23","material": "Elgin-Butler Glazed Brick, Mortar, Grout","medium": "Landscape","date": "1/1/13 0:00","location": "Third Street Streetscape","address": "301 Brazos St","zip": "78702","lat": 30.265593,"lon": -97.744821,"FIELD12": null,"FIELD13": "","FIELD14": ""},{"artist": "Erin  Curtis","image": "img/PedGeometries24.jpg","title": "Pedestrian Geometries #24","material": "Elgin-Butler Glazed Brick, Mortar, Grout","medium": "Landscape","date": "1/1/13 0:00","location": "Third Street Streetscape","address": "301 Brazos St","zip": "78702","lat": 30.265602,"lon": -97.744854,"FIELD12": null,"FIELD13": "","FIELD14": ""},{"artist": "Erin  Curtis","image": "img/PedGeometries25.jpg","title": "Pedestrian Geometries #25","material": "Elgin-Butler Glazed Brick, Mortar, Grout","medium": "Landscape","date": "1/1/13 0:00","location": "Third Street Streetscape","address": "301 Brazos St","zip": "78702","lat": 30.265596,"lon": -97.744832,"FIELD12": null,"FIELD13": "","FIELD14": ""},{"artist": "Erin  Curtis","image": "img/PedGeometries26.jpg","title": "Pedestrian Geometries #26","material": "Elgin-Butler Glazed Brick, Mortar, Grout","medium": "Landscape","date": "1/1/13 0:00","location": "Third Street Streetscape","address": "301 Brazos St","zip": "78702","lat": 30.265217,"lon": -97.743357,"FIELD12": null,"FIELD13": "","FIELD14": ""},{"artist": "Erin  Curtis","image": "img/PedGeometries27.jpg","title": "Pedestrian Geometries #27","material": "Elgin-Butler Glazed Brick, Mortar, Grout","medium": "Landscape","date": "1/1/13 0:00","location": "Third Street Streetscape","address": "301 Brazos St","zip": "78702","lat": 30.265834,"lon": -97.746035,"FIELD12": null,"FIELD13": "","FIELD14": ""},{"artist": "Erin  Curtis","image": "img/PedGeometries29.jpg","title": "Pedestrian Geometries #29","material": "Elgin-Butler Glazed Brick, Mortar, Grout","medium": "Landscape","date": "1/1/13 0:00","location": "Third Street Streetscape","address": "301 Brazos St","zip": "78702","lat": 30.264753,"lon": -97.742299,"FIELD12": null,"FIELD13": "","FIELD14": ""},{"artist": "Erin  Curtis","image": "img/PedGeometries3.jpg","title": "Pedestrian Geometries #3","material": "Elgin-Butler Glazed Brick, Mortar, Grout","medium": "Landscape","date": "1/1/13 0:00","location": "Third Street Streetscape","address": "301 Brazos St","zip": "78702","lat": 30.265657,"lon": -97.745456,"FIELD12": null,"FIELD13": "","FIELD14": ""},{"artist": "Erin  Curtis","image": "img/PedGeometries30.jpg","title": "Pedestrian Geometries #30","material": "Elgin-Butler Glazed Brick, Mortar, Grout","medium": "Landscape","date": "1/1/13 0:00","location": "Third Street Streetscape","address": "301 Brazos St","zip": "78702","lat": 30.266387,"lon": -97.747498,"FIELD12": null,"FIELD13": "","FIELD14": ""},{"artist": "Erin  Curtis","image": "img/PedGeometries4.jpg","title": "Pedestrian Geometries #4","material": "Elgin-Butler Glazed Brick, Mortar, Grout","medium": "Landscape","date": "1/1/13 0:00","location": "Third Street Streetscape","address": "301 Brazos St","zip": "78702","lat": 30.264884,"lon": -97.742125,"FIELD12": null,"FIELD13": "","FIELD14": ""},{"artist": "Erin  Curtis","image": "img/PedGeometries5.jpg","title": "Pedestrian Geometries #5","material": "Elgin-Butler Glazed Brick, Mortar, Grout","medium": "Landscape","date": "1/1/13 0:00","location": "Third Street Streetscape","address": "301 Brazos St","zip": "78702","lat": 30.266714,"lon": -97.748779,"FIELD12": null,"FIELD13": "","FIELD14": ""},{"artist": "Erin  Curtis","image": "img/PedGeometries9.jpg","title": "Pedestrian Geometries #9","material": "Elgin-Butler Glazed Brick, Mortar, Grout","medium": "Landscape","date": "1/1/13 0:00","location": "Third Street Streetscape","address": "301 Brazos St","zip": "78702","lat": 30.265597,"lon": -97.744844,"FIELD12": null,"FIELD13": "","FIELD14": ""},{"artist": "Katherine  Brimberry","image": "img/personaleffects.jpg","title": "Personal Effects III","material": "Monoprint With Solarplate Etching","medium": "Print","date": "1/1/94 0:00","location": "Learning and Research Center","address": "2800 Spirit of Texas Dr","zip": "78719","lat": 30.2116,"lon": -97.66992,"FIELD12": null,"FIELD13": "","FIELD14": ""},{"artist": "Jill  Bedgood","image": "img/NA.jpg","title": "Phantom Ship","material": "Cast Concrete Retaining Walls","medium": "Landscape","date": "1/1/91 0:00","location": "Zilker Metropolitan Park","address": "2100 Barton Springs Rd","zip": "78746","lat": 30.264663,"lon": -97.769253,"FIELD12": null,"FIELD13": "","FIELD14": ""},{"artist": "Glenna  Goodacre","image": "img/NA.jpg","title": "Philosophers Rock","material": "Bronze","medium": "Sculpture","date": "1/1/94 0:00","location": "Zilker Metropolitan Park","address": "2131 William Barton Dr.","zip": "78746","lat": 30.264214,"lon": -97.770738,"FIELD12": null,"FIELD13": "","FIELD14": ""},{"artist": "Tracy  Sutton","image": "img/NA.jpg","title": "Piece of My Heart","material": "Acrylic Paint On Fiberglass","medium": "Painting","date": "1/1/06 0:00","location": "Austin Bergstrom International Airport","address": "3600 Presidential Blvd","zip": "78719","lat": 30.20208,"lon": -97.66698,"FIELD12": null,"FIELD13": "","FIELD14": ""},{"artist": "Arlene  Polite","image": "img/play.jpg","title": "Play","material": "Woodcut","medium": "Misc","date": "1/1/95 0:00","location": "Learning and Research Center","address": "2800 Spirit of Texas Dr","zip": "78719","lat": 30.2116,"lon": -97.66992,"FIELD12": null,"FIELD13": "","FIELD14": ""},{"artist": "Dale  Whistler","image": "img/NA.jpg","title": "Playmates","material": "Painted Aluminum","medium": "Painting","date": "1/1/99 0:00","location": "Town Lake Animal Center","address": "1156 W Cesar Chavez St","zip": "78703","lat": 30.26795347,"lon": -97.75831654,"FIELD12": null,"FIELD13": "","FIELD14": ""},{"artist": "Amy Bunker,  Travis Seeger,  Foster Talge","image": "img/Pods.jpg","title": "Pods","material": "Stainless And Mild Steel, Cedar, Decomposed Granite Landscaping","medium": "Landscape","date": "1/1/16 0:00","location": "Montopolis Neighborhood Center","address": "1416 Montopolis Dr","zip": "78741","lat": 30.229111,"lon": -97.701099,"FIELD12": null,"FIELD13": "","FIELD14": ""},{"artist": "Kathy  Marcus","image": "img/NA.jpg","title": "Por Vida","material": "Mixed Media On Fiberglass","medium": "Mixed Media","date": "1/1/09 0:00","location": "Austin Bergstrom International Airport","address": "3600 Presidential Blvd","zip": "78719","lat": 30.20208,"lon": -97.66698,"FIELD12": null,"FIELD13": "","FIELD14": ""},{"artist": "NADAAA","image": "img/PowerPicket.jpg","title": "Power Picket","material": "Precast Pigmented Concrete, Perforated Metal Panels","medium": "Sculpture","date": "1/1/16 0:00","location": "Seaholm Substation Wall","address": "Seaholm Substation Wall","zip": "78701","lat": 30.26741,"lon": -97.751643,"FIELD12": null,"FIELD13": "","FIELD14": ""},{"artist": "Hawkeye  Glenn","image": "img/NA.jpg","title": "Prayer Wheel","material": "Granite, Limestone, Steel, Porcelain Enamel","medium": "Mixed Media","date": "1/1/14 0:00","location": "Barton Springs Pool","address": "2201 Barton Springs Rd","zip": "78746","lat": 30.264224,"lon": -97.771261,"FIELD12": null,"FIELD13": "","FIELD14": ""},{"artist": "Nan  Standish Blake","image": "img/NA.jpg","title": "Pride","material": "Print On Fujicolor Crystal Archive Paper","medium": "Print","date": "1/1/03 0:00","location": "Health and Human Services Betty Dunkerley Campus","address": "7201 Levander Loop","zip": "78702","lat": 30.253828,"lon": -97.689018,"FIELD12": null,"FIELD13": "","FIELD14": ""},{"artist": "Arlene  Polite","image": "img/printing.jpg","title": "Printing","material": "Woodcut","medium": "Misc","date": "1/1/96 0:00","location": "Learning and Research Center","address": "2800 Spirit of Texas Dr","zip": "78719","lat": 30.2116,"lon": -97.66992,"FIELD12": null,"FIELD13": "","FIELD14": ""},{"artist": "Maggie  Desanto","image": "img/processionguadalupe.jpg","title": "Procession for Our Lady of Guadalupe","material": "Glazed Ceramic Tile, Cement Board","medium": "Mixed Media","date": "1/1/11 0:00","location": "E. Seventh Street Obelisco at Robert Martinez","address": "E 7th and Robert Martinez","zip": "78702","lat": 30.261583,"lon": -97.718018,"FIELD12": null,"FIELD13": "","FIELD14": ""},{"artist": "Nell  Gould","image": "img/notaquince.jpg","title": "Q (not a quince)","material": "Etching ","medium": "Misc","date": "1/1/97 0:00","location": "Learning and Research Center","address": "2800 Spirit of Texas Dr","zip": "78719","lat": 30.2116,"lon": -97.66992,"FIELD12": null,"FIELD13": "","FIELD14": ""},{"artist": "Damian  Priour","image": "img/NA.jpg","title": "Question Mark","material": "Stained Glass","medium": "Mosaic","date": "1/1/79 0:00","location": "Faulk Central Library","address": "800 Guadalupe St","zip": "78701","lat": 30.271145,"lon": -97.745685,"FIELD12": null,"FIELD13": "","FIELD14": ""},{"artist": "Alfredo (Skam)  Martinez","image": "img/NA.jpg","title": "The Children are the Future","material": "Acrylic Paint","medium": "Painting","date": "1/1/91 0:00","location": "Holly Street Power Plant","address": "2400 Holly St","zip": "78702","lat": 30.251037,"lon": -97.721191,"FIELD12": null,"FIELD13": "","FIELD14": ""},{"artist": "Connie  Arismendi,  Laura  Garanzuay","image": "img/esperanza.jpg","title": "Rayo de Esperanza / A Beacon of Hope: Cesar E. Chavez Memorial Sculpture, Community Kiosk, Benches","material": "Aqua Jet Cut Aluminum, Steel, Three Celebratory Lighting Programs","medium": "Mixed Media","date": "1/1/09 0:00","location": "Terrazas Branch Library","address": "1105 E Cesar Chavez St","zip": "78702","lat": 30.260183,"lon": -97.733761,"FIELD12": null,"FIELD13": "","FIELD14": ""},{"artist": "Ambray  Gonzales","image": "img/Ambray_ReachForDreams.jpg","title": "Reach for Your Dreams","material": "Carved Limestone, Slate Tiles, River Rocks","medium": "Sculpture","date": "1/1/02 0:00","location": "Montopolis Sportsplex","address": "800 Grove Blvd","zip": "78741","lat": 30.24335,"lon": -97.701451,"FIELD12": null,"FIELD13": "","FIELD14": ""},{"artist": "Paul  Bond","image": "img/NA.jpg","title": "Reading Between the Lions","material": "Bronze","medium": "Sculpture","date": "1/1/00 0:00","location": "Windsor Park Branch Library","address": "5833 Westminster Dr","zip": "78723","lat": 30.311649,"lon": -97.690219,"FIELD12": null,"FIELD13": "","FIELD14": ""},{"artist": "Jill  Bedgood","image": "img/NA.jpg","title": "Reality * Texas * Mythology","material": "Etched Glass, Etched Metal Medallions","medium": "Mosaic","date": "1/1/99 0:00","location": "Austin Bergstrom International Airport","address": "3600 Presidential Blvd","zip": "78719","lat": 30.202077,"lon": -97.667887,"FIELD12": null,"FIELD13": "","FIELD14": ""},{"artist": "Pio  Pulido","image": "img/NA.jpg","title": "Rebekah Baines Johnson Health Center Mural","material": "Acrylic Paint","medium": "Painting","date": "1/1/99 0:00","location": "Rebekah Baines Johnson Health Center","address": "15 Waller St","zip": "78701","lat": 30.253439,"lon": -97.733152,"FIELD12": null,"FIELD13": "","FIELD14": ""},{"artist": "Virginia  Fleck","image": "img/ReflectResound.jpg","title": "Reflect and Resound","material": "Aluminum, Steel, Paint","medium": "Mixed Media","date": "1/1/17 0:00","location": "Austin Shelter for Women and Children","address": "4523 Tannehill Lane","zip": "78721","lat": 30.28318,"lon": -97.668787,"FIELD12": null,"FIELD13": "","FIELD14": ""},{"artist": "Reginald  Adams","image": "img/reflection.jpg","title": "Reflections","material": "Mosaic Mural Made With Glass And Ceramic Tiles","medium": "Mosaic","date": "1/1/12 0:00","location": "African American Cultural and Heritage Facility","address": "912 E 11th St","zip": "78702","lat": 30.270069,"lon": -97.730876,"FIELD12": null,"FIELD13": "","FIELD14": ""},{"artist": "Ryah  Christensen","image": "img/ReflectionsOnBrazos.jpg","title": "Reflections on the Brazos","material": "Glass, Stone","medium": "Mosaic","date": "1/1/15 0:00","location": "Second Street District","address": "W Second St","zip": "78701","lat": 30.264026,"lon": -97.74293,"FIELD12": null,"FIELD13": "","FIELD14": ""},{"artist": "Cliff  Garten","image": "img/NA.jpg","title": "Rhytons","material": "Bronze, Sound Components","medium": "Mixed Media","date": "1/1/12 0:00","location": "Zachary Scott Theatre","address": "202 S Lamar Blvd.","zip": "78704","lat": 30.26435,"lon": -97.758013,"FIELD12": null,"FIELD13": "","FIELD14": ""},{"artist": "John  Yancey","image": "img/NA.jpg","title": "Riffs and Rhythms","material": "Broken Tile Mosaic","medium": "Mosaic","date": "1/1/96 0:00","location": "Austin Convention Center","address": "500 E Cesar Chavez St","zip": "78701","lat": 30.263956,"lon": -97.740646,"FIELD12": null,"FIELD13": "","FIELD14": ""},{"artist": "Mary  Albrecht","image": "img/NA.jpg","title": "Rosemary: Goddess of the Herb Garden","material": "Ferro Concrete","medium": "Sculpture","date": "1/1/00 0:00","location": "Zilker Botanical Gardens","address": "2220 Barton Springs Rd","zip": "78746","lat": 30.26893,"lon": -97.7729,"FIELD12": null,"FIELD13": "","FIELD14": ""},{"artist": "Jill  Bedgood","image": "img/NA.jpg","title": "Rowing Shell","material": "Back-painted Glass, Aluminum Frame","medium": "Mixed Media","date": "1/1/12 0:00","location": "Waller Creek Boathouse","address": "74 Trinity St","zip": "78701","lat": 30.260647,"lon": -97.741732,"FIELD12": null,"FIELD13": "","FIELD14": ""},{"artist": "Nan  Standish Blake","image": "img/NA.jpg","title": "Safe","material": "Print On Fujicolor Crystal Archive Paper","medium": "Print","date": "1/1/03 0:00","location": "Health and Human Services Betty Dunkerley Campus","address": "7201 Levander Loop","zip": "78702","lat": 30.253828,"lon": -97.689018,"FIELD12": null,"FIELD13": "","FIELD14": ""},{"artist": "Leticia Huerta","image": "img/NA.jpg","title": "San Antonio River","material": "Terrazzo Tile","medium": "Mosaic","date": "1/1/17 0:00","location": "Second Street District","address": "500 W 2nd St","zip": "78701","lat": 30.263583,"lon": -97.741368,"FIELD12": null,"FIELD13": "","FIELD14": ""},{"artist": "T. Paul  Hernandez","image": "img/NA.jpg","title": "Sanctuary of the Tribal Alligator","material": "Concrete","medium": "Sculpture","date": "1/1/88 0:00","location": "Hill Elementary School","address": "8601 Tallwood Dr","zip": "78759","lat": 30.376447,"lon": -97.74857,"FIELD12": null,"FIELD13": "","FIELD14": ""},{"artist": "Martha  Mcashan Guerin","image": "img/NA.jpg","title": "Sandcastles","material": "Bronze","medium": "Sculpture","date": "1/1/89 0:00","location": "Brackenridge Childrens Hospital","address": "","zip": "78701","lat": null,"lon": null,"FIELD12": null,"FIELD13": "","FIELD14": ""},{"artist": "Phillip  Wade","image": "img/NA.jpg","title": "Schnauzer at the Door","material": "Oil On Canvas","medium": "Painting","date": "1/1/92 0:00","location": "Texas Cancer Center at Brackenridge Hospital","address": "","zip": "78701","lat": null,"lon": null,"FIELD12": null,"FIELD13": "","FIELD14": ""},{"artist": "Kathleen  Ash","image": "img/SeaOfKnowledge.jpg","title": "Sea of Knowledge","material": "Laminated Decorative Glass, Kiln-fired Paint","medium": "Mixed Media","date": "1/1/09 0:00","location": "North Village Branch Library","address": "2505 Steck Ave","zip": "78757","lat": 30.362139,"lon": -97.730643,"FIELD12": null,"FIELD13": "","FIELD14": ""},{"artist": "Lawrence  Jolly","image": "img/NA.jpg","title": "Sedona Lake","material": "Oil On Canvas","medium": "Painting","date": "1/1/14 0:00","location": "City Hall and Public Plaza","address": "301 W Second St","zip": "78701","lat": 30.2649,"lon": -97.74686,"FIELD12": null,"FIELD13": "","FIELD14": ""},{"artist": "Nobuho  Nagasawa","image": "img/NA.jpg","title": "Seeding Time","material": "Stones, Limestone, MeeFog Humidification System, Lights, Oak Tree","medium": "Landscape","date": "1/1/04 0:00","location": "City Hall and Public Plaza","address": "301 W Second St","zip": "78701","lat": 30.264554,"lon": -97.747765,"FIELD12": null,"FIELD13": "","FIELD14": ""},{"artist": "Jerald Don Evans","image": "img/NA.jpg","title": "She is Alive!","material": "Bronze, Granite","medium": "Sculpture","date": "1/1/11 0:00","location": "George Washington Carver Museum and Cultural Center","address": "1165 Angelina St","zip": "78702","lat": 30.269979,"lon": -97.724015,"FIELD12": null,"FIELD13": "","FIELD14": ""},{"artist": "Eric  Eley","image": "img/checkerburst.jpg","title": "Shock Egg and Checker Burst","material": "Stainless Steel, Silicon Bronze","medium": "Sculpture","date": "1/1/15 0:00","location": "Austin Bergstrom International Airport","address": "3600 Presidential Blvd","zip": "78719","lat": 30.211885,"lon": -97.666847,"FIELD12": null,"FIELD13": "","FIELD14": ""},{"artist": "Shelley  Wood","image": "img/NA.jpg","title": "Shoestring","material": "Selenium-toned Silver Gelatin Print","medium": "Print","date": "1/1/03 0:00","location": "Health and Human Services Betty Dunkerley Campus","address": "7201 Levander Loop","zip": "78702","lat": 30.253828,"lon": -97.689018,"FIELD12": null,"FIELD13": "","FIELD14": ""},{"artist": "Armando (Tanner)  Martinez","image": "img/NA.jpg","title": "Sign of the Times","material": "Acrylic Paint","medium": "Painting","date": "1/1/91 0:00","location": "Holly Street Power Plant","address": "2400 Holly St","zip": "78702","lat": 30.2512,"lon": -97.71962,"FIELD12": null,"FIELD13": "","FIELD14": ""},{"artist": "Peter  Mangan","image": "img/SkyGates.jpg","title": "Sky Gates","material": "Copper, Brass, Steel, Glass","medium": "Mixed Media","date": "1/1/00 0:00","location": "EMS Station 14","address": "7200 Berkman Dr","zip": "78752","lat": 30.325264,"lon": -97.689283,"FIELD12": null,"FIELD13": "","FIELD14": ""},{"artist": "T. Paul  Hernandez","image": "img/snakeculvert.jpg","title": "Snake Culvert","material": "Cast Concrete","medium": "Sculpture","date": "1/1/90 0:00","location": "Central Access Television Facility","address": "1143 Northwestern Ave","zip": "78702","lat": 30.269439,"lon": -97.715215,"FIELD12": null,"FIELD13": "","FIELD14": ""},{"artist": "Benito  Huerta","image": "img/snakepath.jpg","title": "Snake Path","material": "Brick Pavers","medium": "Landscape","date": "1/1/07 0:00","location": "Emma S. Barrientos Mexican American Cultural Center","address": "600 River St","zip": "78701","lat": 30.258163,"lon": -97.740239,"FIELD12": null,"FIELD13": "","FIELD14": ""},{"artist": "Judd Graham","image": "img/Spin.jpg","title": "Spin","material": "Mild Steel","medium": "Sculpture","date": "1/1/17 0:00","location": "Second Street Bridge and Extension","address": "W 2nd Street Extension","zip": "78701","lat": 30.266177,"lon": -97.751203,"FIELD12": null,"FIELD13": "","FIELD14": ""},{"artist": "David  Newton","image": "img/NA.jpg","title": "Spirit of Hope","material": "Bronze","medium": "Sculpture","date": "1/1/00 0:00","location": "Millennium Youth Entertainment Complex","address": "1156 Hargrave St","zip": "78702","lat": 30.271834,"lon": -97.710959,"FIELD12": null,"FIELD13": "","FIELD14": ""},{"artist": "James  Tisdale","image": "img/NA.jpg","title": "Squirrley","material": "Terracotta","medium": "Sculpture","date": "1/1/08 0:00","location": "City Hall and Public Plaza","address": "301 W Second St","zip": "78701","lat": 30.265,"lon": -97.74651,"FIELD12": null,"FIELD13": "","FIELD14": ""},{"artist": "Rachel Wolfson Smith","image": "img/NA.jpg","title": "Station 7","material": "graphite on paper","medium": "Drawing","date": "1/1/17 0:00","location": "Fire Station 7","address": "201 Chicon St","zip": "78702","lat": 30.258382,"lon": -97.724006,"FIELD12": null,"FIELD13": "","FIELD14": ""},{"artist": "Rachel Wolfson Smith","image": "img/NA.jpg","title": "Station 22","material": "enamel paint on aluminum","medium": "Painting","date": "1/1/17 0:00","location": "Fire Station 22","address": "5309 E Riverside Dr","zip": "78741","lat": 30.229501,"lon": -97.713222,"FIELD12": null,"FIELD13": "","FIELD14": ""},{"artist": "Ann  Armstrong","image": "img/NA.jpg","title": "Stem Rack","material": "Mild Steel","medium": "Sculpture","date": "1/1/12 0:00","location": "Congress Avenue Streetscape","address": "107 E 2nd St","zip": "78701","lat": 30.264101,"lon": -97.743671,"FIELD12": null,"FIELD13": "","FIELD14": ""},{"artist": "Ralph  Helmick","image": "img/NA.jpg","title": "Stevie Ray Vaughan","material": "Bronze","medium": "Sculpture","date": "1/1/94 0:00","location": "Vic Mathias Shores","address": "800 W Riverside Dr","zip": "78704","lat": 30.263113,"lon": -97.750675,"FIELD12": null,"FIELD13": "","FIELD14": ""},{"artist": "Margie  Crisp","image": "img/swallowsuite.jpg","title": "Swallow Suite","material": "Linocut","medium": "Print","date": "1/1/96 0:00","location": "Learning and Research Center","address": "2800 Spirit of Texas Dr","zip": "78719","lat": 30.2116,"lon": -97.66992,"FIELD12": null,"FIELD13": "","FIELD14": ""},{"artist": "Damian  Priour","image": "img/NA.jpg","title": "Symbol Bowl","material": "Limestone, Glass","medium": "Sculpture","date": "1/1/04 0:00","location": "Cultural Arts Division Offices","address": "201 E 2nd St","zip": "78701","lat": 30.26361,"lon": -97.74299,"FIELD12": null,"FIELD13": "","FIELD14": ""},{"artist": "Jill  Bedgood","image": "img/NA.jpg","title": "Texas Botanicals","material": "Oil On Canvas","medium": "Painting","date": "1/1/98 0:00","location": "Austin Convention Center","address": "500 E Cesar Chavez St","zip": "78701","lat": 30.264007,"lon": -97.740225,"FIELD12": null,"FIELD13": "","FIELD14": ""},{"artist": "Kelly  Fearing","image": "img/collector.jpg","title": "The Collector Revisited","material": "Photogravure","medium": "Print","date": "1/1/97 0:00","location": "Learning and Research Center","address": "2800 Spirit of Texas Dr","zip": "78719","lat": 30.2116,"lon": -97.66992,"FIELD12": null,"FIELD13": "","FIELD14": ""},{"artist": "Beverly  Penn,  Steve  Wiman","image": "img/NA.jpg","title": "The Community Core Sample Project & The Threshold Project","material": "Mixed Media, Found Objects, Photographs","medium": "Mixed Media","date": "1/1/02 0:00","location": "St. Johns Community Center","address": "7500 Blessing Ave","zip": "78752","lat": 30.332823,"lon": -97.693701,"FIELD12": null,"FIELD13": "","FIELD14": ""},{"artist": "Jorge  Pardo","image": "img/NA.jpg","title": "The Courtyard","material": "Hand-painted Ceramic Tile Mural","medium": "Mosaic","date": "1/1/88 0:00","location": "Conley-Guerrero Senior Activity Center","address": "808 Nile St","zip": "78702","lat": 30.265621,"lon": -97.711117,"FIELD12": null,"FIELD13": "","FIELD14": ""},{"artist": "Terese M. St. Arnauld","image": "img/NA.jpg","title": "The Cyclist","material": "Silver Gelatin Print","medium": "Print","date": "1/1/99 0:00","location": "Health and Human Services Betty Dunkerley Campus","address": "7201 Levander Loop","zip": "78702","lat": 30.253828,"lon": -97.689018,"FIELD12": null,"FIELD13": "","FIELD14": ""},{"artist": "Alonso  Rey-Sanchez","image": "img/thefamily.jpg","title": "The Family / La Familia","material": "Mineral Paint On Cement Board","medium": "Painting","date": "1/1/11 0:00","location": "E. Seventh Street Obelisco at Pedernales","address": "E 7th and Pedernales","zip": "78702","lat": 30.260907,"lon": -97.713733,"FIELD12": null,"FIELD13": "","FIELD14": ""},{"artist": "Jill  Bedgood","image": "img/NA.jpg","title": "The Life of Waller Creek and Lady Bird Lake","material": "Back-painted And Etched Glass Tiles, Wooden Tiles","medium": "Mixed Media","date": "1/1/12 0:00","location": "Waller Creek Boathouse","address": "74 Trinity St","zip": "78701","lat": 30.26065,"lon": -97.741872,"FIELD12": null,"FIELD13": "","FIELD14": ""},{"artist": "Geoffrey  Graham","image": "img/NA.jpg","title": "The Prophesy of Peace","material": "Serigraph","medium": "Print","date": "1/1/86 0:00","location": "City Hall and Public Plaza","address": "301 W Second St","zip": "78701","lat": 30.26492,"lon": -97.74714,"FIELD12": null,"FIELD13": "","FIELD14": ""},{"artist": "Margaret Heffernan, Michael  Heffernan,  Faith  Schexnayder,  Sara  Twaddle","image": "img/NA.jpg","title": "The Reading Chair","material": "Ceramic And Glass Tiles, Concrete Masonry Unit","medium": "Mixed Media","date": "1/1/11 0:00","location": "McBeth Recreation Center","address": "2401 Columbus Dr","zip": "78746","lat": 30.266724,"lon": -97.778372,"FIELD12": null,"FIELD13": "","FIELD14": ""},{"artist": "Aly  Winningham","image": "img/theroots.jpg","title": "The Roots/ Las raices","material": "Glass And Metal On Cement Board","medium": "Mixed Media","date": "1/1/11 0:00","location": "E. Seventh Street Obelisco at Chicon","address": "E 7th and Chicon","zip": "78702","lat": 30.26256,"lon": -97.72213,"FIELD12": null,"FIELD13": "","FIELD14": ""},{"artist": "John  Christensen","image": "img/NA.jpg","title": "The Source","material": "Bronze, Granite, Concrete","medium": "Sculpture","date": "1/1/94 0:00","location": "Waller Creek Center","address": "625 E Tenth St","zip": "78701","lat": 30.269775,"lon": -97.734988,"FIELD12": null,"FIELD13": "","FIELD14": ""},{"artist": "Doug  Brown","image": "img/NA.jpg","title": "The Unsung","material": "Acrylic Paint","medium": "Painting","date": "1/1/01 0:00","location": "Kenneth Gardner Service Center","address": "4108 Todd Ln","zip": "78744","lat": 30.211902,"lon": -97.737986,"FIELD12": null,"FIELD13": "","FIELD14": ""},{"artist": "Fidencio  Duran","image": "img/NA.jpg","title": "The Visit","material": "9 Acrylic On Canvas Panels","medium": "Painting","date": "1/1/99 0:00","location": "Austin Bergstrom International Airport","address": "3600 Presidential Blvd","zip": "78719","lat": 30.2024,"lon": -97.66791,"FIELD12": null,"FIELD13": "","FIELD14": ""},{"artist": "Benge  Elliott","image": "img/NA.jpg","title": "Three Sheep","material": "Steel","medium": "Sculpture","date": "1/1/03 0:00","location": "City Hall and Public Plaza","address": "301 W Second St","zip": "78701","lat": 30.26466,"lon": -97.7475,"FIELD12": null,"FIELD13": "","FIELD14": ""},{"artist": "Mikyoung  Kim","image": "img/NA.jpg","title": "Time Lines","material": "Digital Prints On Acrylic 20 LPI Lenticular Lens Mounted On Dibond Backing","medium": "Print","date": "1/1/14 0:00","location": "Austin Bergstrom International Airport","address": "3600 Presidential Blvd","zip": "78719","lat": 30.202211,"lon": -97.665904,"FIELD12": null,"FIELD13": "","FIELD14": ""},{"artist": "Sandra  Fiedorek","image": "img/NA.jpg","title": "To Parts Unknown","material": "Tarmac Paint And Glass Beads On Wood Panels","medium": "Painting","date": "1/1/99 0:00","location": "Austin Bergstrom International Airport","address": "3600 Presidential Blvd","zip": "78719","lat": 30.20208,"lon": -97.66698,"FIELD12": null,"FIELD13": "","FIELD14": ""},{"artist": "Connie  Arismendi","image": "img/Estamos.jpg","title": "Trail of Tejano Legends: !Estamos en Tejas!","material": "Aluminum","medium": "Sculpture","date": "1/1/08 0:00","location": "Butler Hike and Bike Trail at Lady Bird Lake","address": "2711 Canterbury St","zip": "78702","lat": 30.251227,"lon": -97.714216,"FIELD12": null,"FIELD13": "","FIELD14": ""},{"artist": "Connie  Arismendi","image": "img/Tenderly.jpg","title": "Trail of Tejano Legends: Tenderly","material": "Aluminum","medium": "Sculpture","date": "1/1/08 0:00","location": "Butler Hike and Bike Trail at Lady Bird Lake","address": "1621 Nash Hernandez Sr Rd","zip": "78702","lat": 30.249331,"lon": -97.73015,"FIELD12": null,"FIELD13": "","FIELD14": ""},{"artist": "Connie  Arismendi","image": "img/cancion.jpg","title": "Trail of Tejano Legends: Una Cancion de Fe y Familia","material": "Aluminum","medium": "Sculpture","date": "1/1/08 0:00","location": "Emma S. Barrientos Mexican American Cultural Center","address": "600 River St","zip": "78701","lat": 30.258003,"lon": -97.740848,"FIELD12": null,"FIELD13": "","FIELD14": ""},{"artist": "James  Talbot","image": "img/NA.jpg","title": "Transition","material": "Ceramic, Stone, Colored Mirror, Glass","medium": "Mixed Media","date": "1/1/06 0:00","location": "Austin Bergstrom International Airport","address": "3600 Presidential Blvd","zip": "78719","lat": 30.20302,"lon": -97.66738,"FIELD12": null,"FIELD13": "","FIELD14": ""},{"artist": "Bill  Wiman","image": "img/NA.jpg","title": "Transitions","material": "Oil On Canvas","medium": "Painting","date": "1/1/90 0:00","location": "Medic 3 Quarters","address": "600 River St","zip": "78701","lat": null,"lon": null,"FIELD12": null,"FIELD13": "","FIELD14": ""},{"artist": "Jimmy  Jalapeeno","image": "img/NA.jpg","title": "Tree on Barton Creek","material": "Oil On Canvas","medium": "Painting","date": "1/1/93 0:00","location": "Cultural Arts Division Offices","address": "201 E 2nd St","zip": "78701","lat": 30.26404,"lon": -97.7424,"FIELD12": null,"FIELD13": "","FIELD14": ""},{"artist": "Lars  Stanley","image": "img/NA.jpg","title": "Tribute to Gus Garcia","material": "Forged Steel And Stone Desk Surround","medium": "Sculpture","date": "1/1/08 0:00","location": "Gus Garcia Recreation Center","address": "1201 E Rundberg Ln","zip": "78753","lat": 30.352593,"lon": -97.682049,"FIELD12": null,"FIELD13": "","FIELD14": ""},{"artist": "Chris  Levack","image": "img/NA.jpg","title": "Trilobite Shade","material": "Rolled Angle Iron, Straight T-iron Members, Ipe Wood Louvers, An ACQ-treated Lumber Nailer System, And A Black Stained Ipe Wedge Network.","medium": "Mixed Media","date": "1/1/11 0:00","location": "Heath Eiland and Morgan Moss BMX Skate Park","address": "1213 Shoal Creek Blvd","zip": "78701","lat": 30.277087,"lon": -97.74971,"FIELD12": null,"FIELD13": "","FIELD14": ""},{"artist": "Bruce  Wolfe","image": "img/NA.jpg","title": "True Patriot: Barbara Jordan Memorial Statue","material": "Bronze","medium": "Sculpture","date": "1/1/02 0:00","location": "Austin Bergstrom International Airport","address": "3600 Presidential Blvd","zip": "78719","lat": 30.20217,"lon": -97.66702,"FIELD12": null,"FIELD13": "","FIELD14": ""},{"artist": "John  Christensen","image": "img/TurtlePlaza.jpg","title": "Turtle Plaza/Plaza de las Tortugas","material": "Concrete","medium": "Sculpture","date": "1/1/12 0:00","location": "Roy G. Guerrero Colorado River Park","address": "400 Grove Blvd","zip": "78741","lat": 30.243525,"lon": -97.701373,"FIELD12": null,"FIELD13": "","FIELD14": ""},{"artist": "Garth  Edwards","image": "img/NA.jpg","title": "Untitled","material": "Lead Stained Glass Window","medium": "Misc","date": "1/1/88 0:00","location": "Conley-Guerrero Senior Activity Center","address": "808 Nile St","zip": "78702","lat": 30.265669,"lon": -97.711056,"FIELD12": null,"FIELD13": "","FIELD14": ""},{"artist": "Malou  Flato","image": "img/NA.jpg","title": "Untitled","material": "Painted Ceramic Tile Mural","medium": "Painting","date": "1/1/93 0:00","location": "Waller Creek Center","address": "625 E Tenth St","zip": "78701","lat": 30.26976,"lon": -97.734562,"FIELD12": null,"FIELD13": "","FIELD14": ""},{"artist": "David  Ellis","image": "img/NA.jpg","title": "Untitled","material": "Cor-ten Steel, Limestone, Wood","medium": "Mixed Media","date": "1/1/80 0:00","location": "Dougherty Arts Center","address": "1110 Barton Springs Rd","zip": "78704","lat": 30.260643,"lon": -97.755996,"FIELD12": null,"FIELD13": "","FIELD14": ""},{"artist": "Arlene  Polite","image": "img/NA.jpg","title": "Untitled","material": "Acrylic Paint","medium": "Painting","date": "1/1/92 0:00","location": "Holly Street Power Plant","address": "2400 Holly St","zip": "78702","lat": 30.251328,"lon": -97.720279,"FIELD12": null,"FIELD13": "","FIELD14": ""},{"artist": "Paul  Siebenaler","image": "img/NA.jpg","title": "Untitled (Chris Kern Memorial)","material": "Granite Bench With Inscription And Surrounding Masonry","medium": "Landscape","date": "1/1/92 0:00","location": "Butler Hike and Bike Trail at Lady Bird Lake","address": "200 S Lamar Blvd","zip": "78704","lat": 30.265044,"lon": -97.757176,"FIELD12": null,"FIELD13": "","FIELD14": ""},{"artist": "Stephen  Ray","image": "img/NA.jpg","title": "Untitled (Gargoyles)","material": "Fiberglass, Clay","medium": "Mixed Media","date": "1/1/90 0:00","location": "Zachary Scott Theatre","address": "1510 Toomey Rd","zip": "78704","lat": 30.26403,"lon": -97.758689,"FIELD12": null,"FIELD13": "","FIELD14": ""},{"artist": "David  Santos","image": "img/NA.jpg","title": "Untitled (Guerilla Carvings)","material": "Limestone Carvings","medium": "Sculpture","date": "1/1/83 0:00","location": "Waller Creek Walkway","address": "500 E Cesar Chavez St","zip": "78701","lat": 30.26391,"lon": -97.739515,"FIELD12": null,"FIELD13": "","FIELD14": ""},{"artist": "Deborah  Mersky","image": "img/NA.jpg","title": "Untitled {Utility Box Cover 1)","material": "Cut Aluminum Panels","medium": "Sculpture","date": "1/1/09 0:00","location": "Cesar Chavez Streetscape","address": "Cesar Chavez at S First St","zip": "78701","lat": 30.263903,"lon": -97.746876,"FIELD12": null,"FIELD13": "","FIELD14": ""},{"artist": "Deborah  Mersky","image": "img/NA.jpg","title": "Untitled {Utility Box Cover 2)","material": "Cut Aluminum Panels","medium": "Sculpture","date": "1/1/09 0:00","location": "Cesar Chavez Streetscape","address": "Cesar Chavez at S First St","zip": "78701","lat": 30.264208,"lon": -97.748134,"FIELD12": null,"FIELD13": "","FIELD14": ""},{"artist": "Michael Singer Studio","image": "img/NA.jpg","title": "Uplifted Ground","material": "Cast Concrete, Steel Cable, Granite, Stainless Steel, Copper, LED Lighting","medium": "Mixed Media","date": "1/1/15 0:00","location": "Austin Bergstrom International Airport","address": "3600 Presidential Blvd","zip": "78719","lat": 30.204077,"lon": -97.667137,"FIELD12": null,"FIELD13": "","FIELD14": ""},{"artist": "Margarita  Cabrera","image": "img/NA.jpg","title": "Uprooted Dreams","material": "Acrylic On Found Wood Pieces","medium": "Painting","date": "1/1/12 0:00","location": "Emma S. Barrientos Mexican American Cultural Center","address": "600 River St","zip": "78701","lat": 30.258154,"lon": -97.740004,"FIELD12": null,"FIELD13": "","FIELD14": ""},{"artist": "Sun  McColgin","image": "img/UrbanCanyon.jpg","title": "Urban / Canyon","material": "Stainless Steel, Stained Concrete, Glass","medium": "Mixed Media","date": "1/1/11 0:00","location": "Second Street District","address": "W Second St","zip": "78701","lat": 30.264774,"lon": -97.745592,"FIELD12": null,"FIELD13": "","FIELD14": ""},{"artist": "Shawn  Smith","image": "img/NA.jpg","title": "Vicious Venue","material": "Painted Balsa Wood, Found Objects (phone, Film Canisters, Film Rolls)","medium": "Mixed Media","date": "1/1/08 0:00","location": "City Hall and Public Plaza","address": "301 W Second St","zip": "78701","lat": 30.26479,"lon": -97.74664,"FIELD12": null,"FIELD13": "","FIELD14": ""},{"artist": "Martha  Gannon","image": "img/NA.jpg","title": "View from the Mayors Window","material": "Metallic Prints, Stainless Steel, Plexiglas","medium": "Print","date": "1/1/05 0:00","location": "City Hall and Public Plaza","address": "301 W Second St","zip": "78701","lat": 30.26496,"lon": -97.74719,"FIELD12": null,"FIELD13": "","FIELD14": ""},{"artist": "Doug  Jacques","image": "img/NA.jpg","title": "Vision","material": "Acrylic On Canvas","medium": "Painting","date": "1/1/94 0:00","location": "City Municipal Building","address": "124 W 8th St","zip": "78701","lat": 30.270468,"lon": -97.742932,"FIELD12": null,"FIELD13": "","FIELD14": ""},{"artist": "John  Fisher","image": "img/voyage.jpg","title": "Voyage to Soulsville (Sesquicentennial Mural)","material": "Acrylic Paint","medium": "Painting","date": "1/1/86 0:00","location": "George Washington Carver Branch Library","address": "1161 Angelina St","zip": "78702","lat": 30.26954,"lon": -97.724074,"FIELD12": null,"FIELD13": "","FIELD14": ""},{"artist": "Judy  Jensen","image": "img/NA.jpg","title": "Voyages","material": "6 Mixed Media Reverse Paintings On Glass","medium": "Painting","date": "1/1/99 0:00","location": "Austin Bergstrom International Airport","address": "3600 Presidential Blvd","zip": "78719","lat": 30.20229,"lon": -97.66799,"FIELD12": null,"FIELD13": "","FIELD14": ""},